Regione,Denominazione,Categoria,Comune,Indirizzo,Latitudine,Longitudine,Prezzo,Contatti
Sardegna,Museo della Statuaria Preistorica in Sardegna,"museo, galleria, raccolta",Laconi,"Piazza G. Marconi, 10",39.854474546,9.052288387,5.0,+390782693238//+393423507760
Sardegna,MEOC (Museo Etnografico Oliva Carta Cannas),"museo, galleria, raccolta",Aggius,"Via Monti di Lizu, 6",40.928234652,9.065460341,4.0,+39079621029//+393494533208
Sardegna,Museo del Banditismo,"museo, galleria, raccolta",Aggius,"Via Pretura, s.n.c.",40.92952259,9.065865433,4.0,+39079621029//+393494533208
Sardegna,Museo del Giocattolo Tradizionale della Sardegna,"museo, galleria, raccolta",Ales,"Via San Simeone, 9",39.774994428,8.831142701,3.0,+390783998072//+393406742512
Sardegna,Museo Diocesano d'Arte Sacra,"museo, galleria, raccolta",Ales,"Piazza Cattedrale, 1",39.768700749,8.816201724,3.0,+39078391974//+393287824283
Sardegna,Area archeologica Anghelu Ruju,area o parco archeologico,Alghero,"SP 42, Strada dei Due Mari",40.632537328,8.326859304,5.0,+393294385947
Sardegna,Area archeologica Santu Pedru,area o parco archeologico,Alghero,SS 127bis,40.623011368,8.403106557,10.0,+393294385947//+393490871963
Sardegna,Museo Casa Manno,"museo, galleria, raccolta",Alghero,"Via Santa Barbara, 23",40.55943437,8.312117249,5.0,+390799732026//+393911254574
Sardegna,Museo del Corallo,"museo, galleria, raccolta",Alghero,"Via XX Settembre, 8",40.55700098,8.31629348,5.0,+390799734045//+39079979054
Sardegna,Museo Diocesano d'Arte Sacra,"museo, galleria, raccolta",Alghero,"Piazza Duomo, s.n.c.",40.559204168,8.313139939,4.0,+390799733041
Sardegna,Museo Naturalistico Mare Nostrum Aquarium,"museo, galleria, raccolta",Alghero,"Via XX Settembre, 1",40.556693484,8.316091079,8.0,+39079978333
Sardegna,Nuraghe Palmavera,area o parco archeologico,Alghero,"Località Mastru Antoni, SS 127 bis km 45,450",40.594988547,8.242894099,5.0,+393294385947
Sardegna,M.U.B.A. Museo della Bonifica di Arborea,"museo, galleria, raccolta",Arborea,"Corso Italia, 24",39.773627097,8.580103276,3.0,+390783802005
Sardegna,Museo Alberto e Giovanni Antonio Castoldi - Museo Mineralogico - Collezione Diorami Dellacà,"museo, galleria, raccolta",Arbus,"Piazza G. Rolandi, s.n.c.",39.557369474,8.569823681,5.0,+393396939435//+393281540281
Sardegna,Ecomuseo della Montagna Sarda o del Gennargentu,"museo, galleria, raccolta",Aritzo,"Parco Comunale Pastissu, 3",39.950227438,9.192275755,3.0,+393898731853//+390784627200
Sardegna,Museo Bottega Del Fabbro,"museo, galleria, raccolta",Armungia,"Vico I G. Mazzini, 14",39.521873277,9.382265965,6.0,+390709589011
Sardegna,Museo Etnografico Sa Domu De Is Ainas,"museo, galleria, raccolta",Armungia,"Piazza Municipio, 3",39.522210147,9.383614924,6.0,+390709589011
Sardegna,Museo Storico Emilio e Joyce Lussu,"museo, galleria, raccolta",Armungia,"Via E. Lussu, s.n.c.",39.522364098,9.380800883,6.0,+390709589011
Sardegna,Complesso Nuragico La Prisgiona,area o parco archeologico,Arzachena,"SS 427, Località Capichera, 1",41.047599947,9.362415177,4.0,+393938975528//+393457200094
Sardegna,Nuraghe Albucciu,area o parco archeologico,Arzachena,SS 125 Olbia - Palau,41.067979532,9.409779341,4.0,+393457200094
Sardegna,Tomba di Giganti di Coddu Ecchju,area o parco archeologico,Arzachena,"SP 14, Località Coddu Ecchju",41.050189598,9.35595028,4.0,+393457200094//+393455760643
Sardegna,Tomba di Giganti di Li Lolghi,area o parco archeologico,Arzachena,"SP 115 per Luogosanto, km 45, Località M.Giu di Li Lolghi",41.066652557,9.333793866,4.0,+393457200380//+393457200094
Sardegna,Tomba di Giganti Moru,area o parco archeologico,Arzachena,SS 125 Olbia - Palau,41.069114938,9.412190539,4.0,+393455760538//+393457200094
Sardegna,Museo d'Arte Moderna e Contemporanea Antonio Ortiz Echague,"museo, galleria, raccolta",Atzara,"Piazza Antonio Ortiz Echague, 1",39.991563268,9.075344563,3.0,+39078465508//+393477983242
Sardegna,Polo Museale Casa Zapata,"museo, galleria, raccolta",Barumini,"Piazza Giovanni XXIII, s.n.c.",39.702938402,9.00005758,14.0,+390709368476
Sardegna,Museo del Vino - Enoteca Regionale della Sardegna,"museo, galleria, raccolta",Berchidda,"Via Gian Giorgio Casu, 5",40.788327955,9.170512742,3.0,+39079705268
Sardegna,Museo S'Omo e Sa Majarza,"museo, galleria, raccolta",Bidonì,"Via Monte, 9",40.11317212,8.937124793,3.0,+39078369044//+393483943842
Sardegna,Museo della Civiltà Pastorale e Contadina,"museo, galleria, raccolta",Bitti,"Via Goffredo Mameli, 52",40.477485471,9.381761332,2.5,+390784414314//+393333211346
Sardegna,Museo Multimediale del canto a tenore,"museo, galleria, raccolta",Bitti,"Via Goffredo Mameli, 52",40.477603091,9.381608638,2.5,+390784414314//+393333211346
Sardegna,Sito Archeologico di Romanzesu,area o parco archeologico,Bitti,"SS 389, km 54",40.530342934,9.324816115,4.0,+393333211346//+390784414314
Sardegna,Museo Civico Archeologico,"museo, galleria, raccolta",Bonorva,"Piazza S. Antonio, s.n.c.",40.418590354,8.766444132,4.0,+393485642611//+39079867894
Sardegna,Necropoli di Sant'Andrea Priu,area o parco archeologico,Bonorva,"SP 43, località Santa Lucia",40.421647881,8.847212066,6.0,+393485642611//+39079867894
Sardegna,Museo della Cattedrale di San Pietro di Sorres,"museo, galleria, raccolta",Borutta,"San Pietro di Sorres, s.n.c.",40.520138601,8.749316593,3.0,+393393312355//+39079824001//+39079824025
Sardegna,Basilica di San Pietro Extra Muros,monumento o complesso monumentale,Bosa,"Via San Pietro, s.n.c.",40.289260887,8.51990324,2.0,+390785373286//+393335445675//+393403955048//+393298505079
Sardegna,Chiesa di Nostra Signora di  Regnos Altos,monumento o complesso monumentale,Bosa,"Via Canonico Nino Gavino, 9",40.297151072,8.504528164,4.0,+390785373286
Sardegna,Collezione permanente Pinanoteca Antonio Atza,"museo, galleria, raccolta",Bosa,"Corso Vittorio Emanuele II, 74",40.295751284,8.501643964,4.5,+393288789521
Sardegna,Museo Casa Deriu,"museo, galleria, raccolta",Bosa,"Corso Vittorio Emanuele II, 59",40.296003939,8.501736358,4.5,+393288789521
Sardegna,Museo delle Conce,"museo, galleria, raccolta",Bosa,"Via Sas Conzas, 62",40.294448575,8.500394608,3.5,+393288789521
Sardegna,Museo d'Arte Contemporanea,"museo, galleria, raccolta",Buddusò,"Corso Antonio Segni, s.n.c.",40.570991034,9.258464706,2.5,+390795610041//+393925234333//+39079715519
Sardegna,Galleria Henry,monumento o complesso monumentale,Buggerru,"Via Pranu Sartu, s.n.c.",39.398313021,8.399033217,10.0,+393341142910
Sardegna,Museo del Minatore,"museo, galleria, raccolta",Buggerru,"Via Marina, s.n.c.",39.40030582,8.400630419,2.5,+393341142910
Sardegna,Castello di Burgos,monumento o complesso monumentale,Burgos,"Vico Castello, s.n.c.",40.388520713,8.998935249,3.0,+393479018930
Sardegna,Museo dei Castelli,"museo, galleria, raccolta",Burgos,"Vico Castello, s.n.c.",40.38922335,8.996072213,3.0,+393479018930
Sardegna,Museo Civico Giovanni Marongiu,"museo, galleria, raccolta",Cabras,"Via Tharros, 121",39.924835242,8.525467942,6.5,+390783290636
Sardegna,Torre di San Giovanni di Sinis,monumento o complesso monumentale,Cabras,"SP 6, Località San Giovanni di Sinis",39.873039012,8.438909733,4.0,+390783370019
Sardegna,Anfiteatro Romano,monumento o complesso monumentale,Cagliari,"Via Sant'Ignazio da Laconi, 27",39.224022454,9.113394178,3.0,+393662562826//+390706670168
Sardegna,Castello di San Michele,monumento o complesso monumentale,Cagliari,"Via Sirai, s.n.c.",39.244764832,9.109782936,3.0,+3907015240479//+393466673657
Sardegna,Centro Comunale d'Arte e Cultura Exmà,"museo, galleria, raccolta",Cagliari,"Via San Lucifero, 71",39.214517877,9.120537388,5.0,+39070666399//+393466673565
Sardegna,Galleria Comunale d'Arte,"museo, galleria, raccolta",Cagliari,"Largo giuseppe Dessì, s.n.c.",39.225970756,9.115986708,6.0,+390706776454//+390706777598
Sardegna,Museo d'Arte Siamese Stefano Cardu,"museo, galleria, raccolta",Cagliari,"Piazza Arsenale, 1",39.222757067,9.117319475,3.0,+390706776543
Sardegna,Museo del Duomo,"museo, galleria, raccolta",Cagliari,"Via Fossario, 5",39.218477224,9.117011055,4.0,+393282687731//+39070680244
Sardegna,MUTSEU - Museo del Tesoro e Area Archeologica di S. Eulalia,"museo, galleria, raccolta",Cagliari,"Vico del Collegio, 2",39.214631864,9.114722791,5.0,+393489310225
Sardegna,Antico Palazzo di Città,"museo, galleria, raccolta",Cagliari,"Piazza Palazzo, 6",39.218639742,9.116698607,9.0,+390706776482
Sardegna,Raccolta delle Cere Anatomiche di Clemente Susini,"museo, galleria, raccolta",Cagliari,"Piazza Arsenale, s.n.c.",39.222009352,9.117132752,1.5,+390706754027//+390706757624//+390706754083
Sardegna,Villa di Tigellio,area o parco archeologico,Cagliari,"Via Carbonazzi, 7",39.22059783,9.108515754,2.0,+393662562826
Sardegna,Museo Diocesano di Arte Sacra Santa Giusta,"museo, galleria, raccolta",Calangianus,"Via Rosario, s.n.c.",40.921251298,9.195151533,4.0,+393393469370//+393471884456
Sardegna,Museo d'arte contemporanea MACC,"museo, galleria, raccolta",Calasetta,"Via Savoia, 2",39.110896221,8.366680619,4.0,+390781887219
Sardegna,Museo Archeologico Villa Sulcis,"museo, galleria, raccolta",Carbonia,"Via Campania, s.n.c.",39.163601197,8.525010773,6.0,+3907811867304//+393458886058
Sardegna,Museo del Carbone,"museo, galleria, raccolta",Carbonia,"SS 126, Serbariu",39.160440465,8.510568003,8.0,+39078162727
Sardegna,"Museo dei Paleo Ambienti Sulcitani ""E.A. Martel""","museo, galleria, raccolta",Carbonia,"SS 126, Serbariu",39.159256476,8.51186103,6.0,+393402689043
Sardegna,Parco Archeologico Monte Sirai,area o parco archeologico,Carbonia,"SS 126, Monte Sirai",39.177485729,8.488831428,6.0,+3907811888256//+393457559751
Sardegna,Museo Casa del Duca,"museo, galleria, raccolta",Carloforte,"Via della Cisterna del Re, 20-24",39.146683895,8.305560575,5.0,+3907818589260//+3907818589207
Sardegna,Museo dell'intreccio Mediterraneo,"museo, galleria, raccolta",Castelsardo,"Via Guglielmo Marconi, s.n.c.",40.915678871,8.712581305,3.0,+390796014769//+393471118547
Sardegna,Museum Ampuriense - Cattedrale S. Antonio Abate,"museo, galleria, raccolta",Castelsardo,"Via Manganella, 42",40.91682331,8.71274258,4.0,+390796393099
Sardegna,Basilica della Santissima Trinità di Saccargia,monumento o complesso monumentale,Codrongianos,SS 597,40.671185823,8.689498643,3.0,+393470007882
Sardegna,Museo dell'Olio dr. Giorgio Zampa,"museo, galleria, raccolta",Cuglieri,"Corso Umberto I, 68",40.191090542,8.568668139,3.0,+393405291175
Sardegna,Museo della Tradizione Olearia Sa Mola De Su Notariu,"museo, galleria, raccolta",Dolianova,"Viale Europa, 18",39.375629864,9.176865478,25.0,+39070740651//+393355468560
Sardegna,Casa Museo,"museo, galleria, raccolta",Domus de Maria,"Piazza Vittorio Emauele, s.n.c.",38.944377834,8.865178631,1.6,+390707331424
Sardegna,Area archeologica Tiscali,area o parco archeologico,Dorgali,"Supramonte di Dorgali, località Monte Tiscali",40.241609035,9.492120287,5.0,+393484780104
Sardegna,Museo Archeologico Dorgali,"museo, galleria, raccolta",Dorgali,"Via Lamarmora, s.n.c",40.291944275,9.588417192,3.0,+393484780104
Sardegna,Museo della Foca Monaca,"museo, galleria, raccolta",Dorgali,"Viale Bue Marino, 1",40.282870309,9.633157416,5.0,+393460366858
Sardegna,Villaggio Nuragico di Serra Orrios,area o parco archeologico,Dorgali,SP 38,40.333727011,9.537758762,5.0,+393484780104
Sardegna,Villaggio Nuragico-Romano Nuraghe Mannu,area o parco archeologico,Dorgali,Strada per Nuraghe Mannu,40.259244885,9.620495961,4.0,+393484780104
Sardegna,Area archeologica di Antas (Tempio Punico Romano),area o parco archeologico,Fluminimaggiore,Località Antas,39.393767322,8.500245029,4.0,+393478174989
Sardegna,Museo Etnografico Antico Mulino ad acqua Licheri,"museo, galleria, raccolta",Fluminimaggiore,"Piazza Antonio Gramsci, s.n.c.",39.435645269,8.497749501,3.0,+393478174989
Sardegna,Area archeologica delle Terme Romane,area o parco archeologico,Fordongianus,"Via Vittorio Veneto, s.n.c.",39.996879548,8.808503021,4.0,+39078360157
Sardegna,Casa Aragonese,monumento o complesso monumentale,Fordongianus,"Via Traiano, 10",39.99538527,8.80930363,4.0,+39078360157
Sardegna,Museo Etnografico sa Domo E' Marras,"museo, galleria, raccolta",Galtellì,"Via Garibaldi, 14",40.386027864,9.614598633,5.0,+393472211296//+393451312441//+393471942842
Sardegna,Museo Casa Porcu Satta,"museo, galleria, raccolta",Gavoi,"Via Roma, 187",40.158704827,9.194235241,2.0,+39078453633
Sardegna,Civico Museo del Cavallino della Giara,"museo, galleria, raccolta",Genoni,"Via Chiesa, 7",39.795152599,9.007223692,3.5,+393391676863
Sardegna,P.Ar.C. - Paleo Archeo Centro,"museo, galleria, raccolta",Genoni,"Località Santu Antine, s.n.c.",39.798129219,9.002346637,3.5,+393391676863
Sardegna,Museo della Giara,"museo, galleria, raccolta",Gesturi,"Via Camillo Benso Conte di Cavour, 4",39.732849335,9.019587251,2.0,+390709369052
Sardegna,Casa museo Antonio Gramsci,"museo, galleria, raccolta",Ghilarza,"Corso Umberto I, 57",40.123039454,8.837594453,4.0,+39078553075
Sardegna,Parco Archeologico di Pranu Muttedu,area o parco archeologico,Goni,Località Pranu Muttedu,39.567728665,9.266941764,5.0,+39070982059
Sardegna,Museo Turcus e Morus,"museo, galleria, raccolta",Gonnostramatza,"Piazza San Michele Arcangelo, 5",39.680725683,8.833471808,3.0,+39078392587//+393476008108//+393477299298
Sardegna,Casa Murgia,"museo, galleria, raccolta",Guspini,"Via Petrarca, 2",39.539246177,8.624635363,3.0,+39070973173//+393384592082//+393891643692
Sardegna,"Complesso Minerario di Montevecchio - Miniera di Piccalinna, Palazzina della Direzione e Pozzo Sant'Antonio",monumento o complesso monumentale,Guspini,"Piazzale Rolandi, 2",39.556051312,8.580173821,5.0,+39070973173//+393384592082//+393891643692
Sardegna,Galleria Anglosarda,monumento o complesso monumentale,Guspini,"Miniera Montevecchio, SP 66",39.555574129,8.577790516,12.0,+393384592082//+393891643692//+390781491300
Sardegna,Museo Monte Tempo,"museo, galleria, raccolta",Guspini,"Via Ferracciu, 1",39.540392004,8.625106412,3.0,+39070973173//+393384592082//+393891643692
Sardegna,Grotta di Santa Barbara - Miniera di San Giovanni,monumento o complesso monumentale,Iglesias,"Frazione San Giovanni, Miniera, SS 126",39.289501453,8.489563599,15.0,+390781274507
Sardegna,Museo dell'Arte Mineraria,"museo, galleria, raccolta",Iglesias,"Via Roma, 47",39.311332476,8.531991194,5.0,+390781350037//+393394051486//+393389221392
Sardegna,Porto Flavia,monumento o complesso monumentale,Iglesias,"Strada Provinciale, 83",39.336114836,8.408094875,10.0,+390781274507
Sardegna,Antiquarium Comunale di Irgoli,"museo, galleria, raccolta",Irgoli,"Via San Michele, 14",40.409521237,9.632715883,2.0,+390784979074//+393806390589
Sardegna,Complesso Nuragico di Janna 'e Pruna e Fonte Sacra di Su Notante,area o parco archeologico,Irgoli,Monte 'E Senes,40.485488131,9.648200379,2.0,+390784979074//+393806390589
Sardegna,MARATE - Museo Per L'Arte del Rame e del Tessuto,"museo, galleria, raccolta",Isili,"Piazza San Giuseppe Calasanzio, 8",39.74206535,9.106801455,2.5,+390782802641//+393804553856
Sardegna,Nuraghe Is Paras,area o parco archeologico,Isili,"Via Grazia Deledda, s.n.c.",39.748621779,9.107473956,3.0,+390782802641//+393804553856//+393391121384//+393482231271
Sardegna,Museo Civico Archeologico Etnografico,"museo, galleria, raccolta",Ittireddu,"Via San Giacomo, 3",40.544071881,8.902356552,3.0,+39079767623
Sardegna,Museo Diocesano La Maddalena,"museo, galleria, raccolta",La Maddalena,"Via Baron Manno, s.n.c.",41.213344805,9.405483162,3.0,+393491534391
Sardegna,Parco Archeologico Seleni,area o parco archeologico,Lanusei,"Località Bosco Seleni, s.n.c.",39.877159107,9.520683172,4.0,+39078241051
Sardegna,Museo Muda,"museo, galleria, raccolta",Las Plassas,"Via Alessandro Manzoni, 4",39.681610465,8.985050062,5.0,+390709790410//+393475383803
Sardegna,Museo Naturalistico del Territorio Giovanni Pusceddu,"museo, galleria, raccolta",Lunamatrona,"Strada Comunale Mogoro-Lunamatrona, Località Spinarba",39.656782918,8.865562283,6.0,+390709300242//+390709341009
Sardegna,Collezione Forteleoni,"museo, galleria, raccolta",Luras,"Corso Carlo Alberto, 1",40.936605892,9.175382805,5.0,+39079647547
Sardegna,"Museo Etnografico Galluras, Il Museo della Femina Agabbadora","museo, galleria, raccolta",Luras,"Via Nazionale, 35",40.935480007,9.175296705,5.0,+393683376321
Sardegna,Area archeologica di Tamuli,area o parco archeologico,Macomer,Strada Comunale Monte,40.260543322,8.717727983,4.0,+393479481337//+390785743044//+39078570475
Sardegna,Museo Etnografico Le Arti Antiche,"museo, galleria, raccolta",Macomer,"Corso Umberto I, 225",40.267509337,8.776197603,4.0,+390785743044//+39078570475//+393479481337
Sardegna,Necropoli di Filigosa,area o parco archeologico,Macomer,SS 129bis,40.277643516,8.769827597,4.0,+390785743044//+39078570475//+393479481337
Sardegna,Nuraghe Santa Barbara,area o parco archeologico,Macomer,SS 131,40.275947973,8.782898061,4.0,+390785743044//+39078570475//+393479481337
Sardegna,Nuraghe Succoronis,area o parco archeologico,Macomer,SS 129 bis,40.284626573,8.749743055,4.0,+390785743044//+39078570475//+393479481337
Sardegna,Museo della Cultura e del Lavoro,"museo, galleria, raccolta",Mamoiada,"Via Sardegna, 17",40.213541102,9.283409602,4.0,+390784569018
Sardegna,Museo delle Maschere Mediterranee,"museo, galleria, raccolta",Mamoiada,"Piazza Europa, 15",40.210999793,9.283692808,5.0,+390784569018
Sardegna,Casa Museo Is Lollas de Is Aiaiusu,"museo, galleria, raccolta",Mandas,"Via S. Antonio, 15",39.653692322,9.126772797,2.0,+393491973677//+39070987801//+393489335805
Sardegna,Museo di Arte Sacra Peregrinatio Fidei,"museo, galleria, raccolta",Mandas,"Piazza Carlo Alberto, s.n.c.",39.651179325,9.12674654,2.0,+393493607889//+39070987801//+393489335805
Sardegna,Geomuseo Monte Arci Stefano Incani,"museo, galleria, raccolta",Masullas,"Piazza Convento, s.n.c.",39.701379103,8.78069972,4.0,+393891777100//+390783990251
Sardegna,Museo I Cavalieri delle Colline,"museo, galleria, raccolta",Masullas,"Piazza San Leonardo, s.n.c.",39.701737276,8.784314502,4.0,+393891777100//+390783991122
Sardegna,Area archeologica Nuraghe Nolza,area o parco archeologico,Meana Sardo,Località Nolza,39.917013888,9.073189374,3.0,+39078464183//+393311092120
Sardegna,Area archeologica Cuccurada,area o parco archeologico,Mogoro,SP 44,39.664461045,8.747882739,2.0,+393281156539
Sardegna,Ecomuseo Miniere Rosas,"museo, galleria, raccolta",Narcao,"Via Rosas, s.n.c.",39.202707295,8.719455756,8.0,+3907811855139//+393292773342
Sardegna,Museo dell'Immagine e del Design Interattivo,"museo, galleria, raccolta",Norbello,"Vico San Giovanni, 10",40.138607063,8.833959265,3.0,+390785519927//+393473846907
Sardegna,MAN Museo d'Arte Provincia di Nuoro,"museo, galleria, raccolta",Nuoro,"Via Sebastiano Satta, 27",40.321512772,9.333757112,5.0,+390784252110
Sardegna,Museo Deleddiano - Casa Natale di Grazia Deledda,"museo, galleria, raccolta",Nuoro,"Via Grazia Deledda, 42",40.323706239,9.336954694,3.0,+39078436101
Sardegna,Museo della Vita e delle Tradizioni Popolari Sarde,"museo, galleria, raccolta",Nuoro,"Via Antonio Mereu, 56",40.316755003,9.3356492,5.0,+390784257035//+390784242900
Sardegna,Grotta Corbeddu,monumento o complesso monumentale,Oliena,"SP 46, Valle di Lanaitto",40.255452891,9.486493815,5.0,+393478249517
Sardegna,Villaggio Nuragico Sa Sedda e Sos Carros,area o parco archeologico,Oliena,"SP 46, Valle di Lanaitto, località Carros",40.258229065,9.486172783,5.0,+393478249517
Sardegna,Casa Museo Carmelo Floris,"museo, galleria, raccolta",Olzai,"Via S. Anastasio, 30",40.18152812,9.149970445,2.5,+393664625022//+393486094727
Sardegna,Museo Nivola,"museo, galleria, raccolta",Orani,"Via Gonare, 2",40.247027694,9.180189916,5.0,+390784730063
Sardegna,Museo Archeologico Antiquarium Arborense,"museo, galleria, raccolta",Oristano,"Piazza Giovanni Corrias, s.n.c.",39.904440581,8.592629777,5.0,+390783791262
Sardegna,Pinacoteca Comunale Carlo Contini,"museo, galleria, raccolta",Oristano,"Via Sant'Antonio, s.n.c.",39.904176171,8.589191871,4.0,+390783791262//+390783791204
Sardegna,Area archeologica Su Nuraxi Arrubiu,area o parco archeologico,Orroli,"SP 10, località Su Pranu",39.662138402,9.297700986,4.0,+390782847269//+393297867983
Sardegna,Museo Omu Axiu,"museo, galleria, raccolta",Orroli,"Via Roma, 46",39.69218923,9.253340754,3.0,+390782845023
Sardegna,Sa domu de Su Nuraxi Arrubiu,"museo, galleria, raccolta",Orroli,"Via Roma, 119",39.693808068,9.252515452,5.0,+390782847269//+393297867983
Sardegna,Museo del Grano,"museo, galleria, raccolta",Ortacesus,"Via J.F. Kennedy, 25",39.539237929,9.083652694,2.0,+390709819027
Sardegna,Su Tempiesu,area o parco archeologico,Orune,Località Sa Costa e Sa Binza,40.41092889,9.412900728,3.0,+393287565148
Sardegna,Parco Archeologico e Naturalistico del Taccu di Osini,area o parco archeologico,Osini,Altopiano Del Taccu,39.826070182,9.486141549,3.0,+393297643343//+393204960927//+393287623515
Sardegna,Civico Museo Archeologico Alle Clarisse,"museo, galleria, raccolta",Ozieri,"Piazza P. Micca, s.n.c.",40.585950038,9.003232234,5.0,+390797851052//+390797851090//+39079787638
Sardegna,Grotta di San Michele,area o parco archeologico,Ozieri,"Via San Michele, s.n.c.",40.580887106,9.004165423,3.0,+39079787638
Sardegna,Museo Diocesano d'Arte Sacra,"museo, galleria, raccolta",Ozieri,"Via Umberto I, 37",40.584508747,9.002405129,3.0,+39079786093//+3934715460083//+39079787638
Sardegna,Pinacoteca Giuseppe Altana,"museo, galleria, raccolta",Ozieri,"Via Alcide De Gasperi, 2",40.588031068,9.002038787,3.0,+39079787638
Sardegna,Sant'Antioco di Bisarcio,monumento o complesso monumentale,Ozieri,SS 597,40.644717636,8.892771753,3.0,+39079787638//+390797851052
Sardegna,Museo Civico Archeologico,"museo, galleria, raccolta",Padria,"Via Nazionale, 3",40.397541888,8.630523572,1.0,+39079807018//+393402836246//+393479384533
Sardegna,Fortezza di Militare di Monte Altura,monumento o complesso monumentale,Palau,"SS 133, strada per Porto Rafael",41.185211074,9.363028891,5.0,+393203407436
Sardegna,Museo Etnografico,"museo, galleria, raccolta",Palau,"Via Nazionale, s.n.c.",41.178715705,9.380041979,2.5,+393470913032
Sardegna,CULTER - Museo del Coltello Internazionale,"museo, galleria, raccolta",Pattada,"Via Vittorio Emanuele, 64",40.581816619,9.110495841,4.0,+39079755918
Sardegna,Museo dell'Ossidiana,"museo, galleria, raccolta",Pau,"Via San Giorgio, 8",39.792753916,8.803149668,6.0,+390783934011
Sardegna,Museo della Donna,"museo, galleria, raccolta",Pauli Arbarei,"Via Roma, 12/ Via Mannu, 3",39.661770922,8.920809429,2.0,+39070939039
Sardegna,Complesso Nuragico Area di Santa Cristina,area o parco archeologico,Paulilatino,SS 131,40.061226346,8.731650517,7.0,+39078555438//+393477746747
Sardegna,Museo Archeologico Etnografico Palazzo Atzori,"museo, galleria, raccolta",Paulilatino,"Via Nazionale, 127-129",40.082909257,8.763268893,7.0,+39078555438//+393477746747
Sardegna,Museo Diocesano - Sacristia Santa Maria Degli Angeli,"museo, galleria, raccolta",Perfugas,"Piazza Domenico Alberto Azuni, s.n.c.",40.829042914,8.886449611,4.0,+390796393099//+393497777103//+393459388019
Sardegna,Quadreria Spano,"museo, galleria, raccolta",Ploaghe,"Piazza San Pietro, s.n.c.",40.66641212,8.749052846,2.5,+393493672110
Sardegna,Città Romana e Parco Archeologico di Turris Libisonis,area o parco archeologico,Porto Torres,"Via Ponte Romano, 99",40.837336592,8.396267448,4.0,+39079514433
Sardegna,Castello della Fava,monumento o complesso monumentale,Posada,"Via Eleonora d'Arborea, s.n.c.",40.637988567,9.723759427,2.5,+393474801421
Sardegna,Museo del Cavallo di Pozzomaggiore,"museo, galleria, raccolta",Pozzomaggiore,"Piazza Convento, 39",40.396742287,8.660599079,2.0,+393408070619//+393283831764//+39079801969
Sardegna,Museo Unico Regionale dell'Arte Tessile Sarda,"museo, galleria, raccolta",Samugheo,"Via Bologna, s.n.c.",39.955086653,8.946882901,2.5,+390783631052
Sardegna,Museo della Civiltà del Mare,"museo, galleria, raccolta",San Teodoro,"Via Niuloni, 1",40.779648608,9.674205849,2.0,+390784866180//+393477256278
Sardegna,Castello Giudicale Eleonora d'Arborea Museo del Risorgimento e Collezione di Ceroplastiche,"museo, galleria, raccolta",Sanluri,"Via Generale Nino Villa Santa, 1",39.563271179,8.897919344,6.0,+390709307184//+393939916135
Sardegna,Museo del Convento dei Cappuccini,"museo, galleria, raccolta",Sanluri,"Via San Rocco, 6",39.56592009,8.897787382,3.0,+390703293920
Sardegna,Area archeologica di Pani Loriga,area o parco archeologico,Santadi,Località Pani Loriga,39.090787061,8.689304705,5.0,+390781954203//+393488866797
Sardegna,Museo Civico Archeologico Santadi,"museo, galleria, raccolta",Santadi,"Via Umberto I, 17",39.093913366,8.717401801,5.0,+390781954203//+393488866797
Sardegna,Museo Etnografico Sa Domu Antiga,"museo, galleria, raccolta",Santadi,"Via Mazzini, 45",39.09283503,8.715480956,5.0,+393488866797
Sardegna,Forte Sabaudo Forte Su Pisu,monumento o complesso monumentale,Sant'Antioco,"Via Castello, s.n.c.",39.070659707,8.450871014,2.5,+390781800596//+393897962114
Sardegna,Museo Archeologico Ferruccio Barreca,"museo, galleria, raccolta",Sant'Antioco,"Via Sabatino Moscati, 1",39.075786259,8.45175417,6.0,+39078182105//+393897962114
Sardegna,Museo Etnografico Su Magasinu e Su Binu,"museo, galleria, raccolta",Sant'Antioco,"Via Necropoli, 24d",39.07108281,8.449827376,3.0,+393890505107//+390781800596//+393897962114
Sardegna,Necropoli De Is Pirixeddus,area o parco archeologico,Sant'Antioco,"Via Castello, s.n.c.",39.071735192,8.451583326,5.0,+39078182105//+393701592448//+39078180301//+390781800596//+393897962114
Sardegna,Museo della Tecnologia Contadina - Maestro Francesco Salis,"museo, galleria, raccolta",Santu Lussurgiu,"Via Deodato Meloni, 1",40.141712257,8.652152996,5.0,+393407706673//+393496868600
Sardegna,Area archeologica di Santa Anastasia,area o parco archeologico,Sardara,"Vico Eleonora D'Arborea, 10",39.616787422,8.820006709,5.0,+390709386183//+390709386011
Sardegna,Civico Museo Archeologico Villa Abbas,"museo, galleria, raccolta",Sardara,"Piazza della Libertà, 7",39.615917835,8.821982813,5.0,+390709386183//+390709386011
Sardegna,Museo della Città - Palazzo di Città,"museo, galleria, raccolta",Sassari,"Corso Vittorio Emanuele II, 35",40.728013263,8.559924444,4.0,+390792008072//+390792015122//+393314377156
Sardegna,Museo Diocesano di Sassari,"museo, galleria, raccolta",Sassari,"Piazza del Duomo, s.n.c.",40.72671167,8.558778392,2.0,+39079232067//+393472174128
Sardegna,Museo Domu De Janas La Rocca,"museo, galleria, raccolta",Sedini,"Via Nazionale, 35",40.848449262,8.818156545,8.0,+39079589215//+393498440436//+39079588581
Sardegna,Museo Sa Domu Nosta,"museo, galleria, raccolta",Senorbì,"Via Scaledda, 1",39.533760629,9.131838072,3.0,+390709809071
Sardegna,Area archeologica Santa Vittoria Serri,area o parco archeologico,Serri,Strada Comunale Santa Vittoria,39.712685069,9.105169859,5.0,+393460669068
Sardegna,Palazzina Liberty - Museo della civiltà contadina,"museo, galleria, raccolta",Seui,"Via Roma, 241",39.839742197,9.322788644,5.0,+390782539002
Sardegna,Museo delle Tradizioni Agroalimentari della Sardegna - Casa Steri,"museo, galleria, raccolta",Siddi,"Via Roma, 2",39.671648076,8.88878404,5.0,+393496304621
Sardegna,Museo Ornitologico della Sardegna,"museo, galleria, raccolta",Siddi,"Piazza Leonardo da Vinci, s.n.c.",39.671812206,8.888468968,2.0,+39070939888//+393475116787
Sardegna,Parco Naturalistico Archeologico Sa Fogaia,area o parco archeologico,Siddi,Giara di Siddi,39.662977791,8.878641843,2.0,+39070939888//+393475116787
Sardegna,Castello di Acquafredda,monumento o complesso monumentale,Siliqua,SS 293,39.261990735,8.820316702,6.0,+393491564023//+393497428014
Sardegna,Museo Civico Archeologico e Pinacoteca,"museo, galleria, raccolta",Sinnai,"Via P. Colletta, 20",39.302004158,9.202034006,2.0,+393406671868
Sardegna,Casa Museo  della Tecnologia Contadina Tiu Virgiliu,"museo, galleria, raccolta",Suni,"Via Regina Margherita, 7",40.279113278,8.548135445,5.0,+393288789521
Sardegna,Necropoli Chirisconis,area o parco archeologico,Suni,SS 292 bis,40.331145705,8.593086605,2.5,+393288789521
Sardegna,Nuraghe Nuraddeo,area o parco archeologico,Suni,SS 292 bis,40.324299183,8.57997115,2.5,+393288789521
Sardegna,Nuraghe Seneghe,area o parco archeologico,Suni,"Via Bosa, s.n.c.",40.279216862,8.539274442,2.5,+393288789521
Sardegna,Parco Archeologico,area o parco archeologico,Suni,"Vico B Bosa, 3",40.279400365,8.547827681,5.0,+393288789521
Sardegna,Museo Diocesano San Pietro Apostolo,"museo, galleria, raccolta",Tempio Pausania,"Via Villa Marina, 1",40.902965239,9.104283154,4.0,+390796393099//+393459388019
Sardegna,Nuraghe Majori,area o parco archeologico,Tempio Pausania,SS 133,40.919447695,9.096851107,3.5,+393472995933//+393203060634
Sardegna,Area di S'Urbale,area o parco archeologico,Teti,"Via Roma, 7",40.085631954,9.109598278,2.5,+39078468120//+3907849364481
Sardegna,Museo Archeologico Comprensoriale,"museo, galleria, raccolta",Teti,"Via Roma, 7",40.097035648,9.121007812,2.5,+39078468120
Sardegna,Santuario Nuragico di Abini,area o parco archeologico,Teti,"Via Roma, 7",40.145460165,9.092964759,2.5,+39078468120
Sardegna,Complesso Nuragico di Santu Antine,area o parco archeologico,Torralba,SP 21,40.486504236,8.769904623,8.0,+39079847481//+393664353484//+393479138479
Sardegna,Complesso Monumentale Comprendente La Cattedrale di S. Maria di Monserrato e Borgo Medievale,monumento o complesso monumentale,Tratalias,"Piazza Chiesa, s.n.c.",39.097975559,8.572070511,2.5,+390781688046//+390781697023
Sardegna,Museo dell'olivo e dell'olio e Museo degli strumenti musicali - Villa Asquer,"museo, galleria, raccolta",Tuili,"Piazza San Pietro, s.n.c.",39.715234422,8.958843543,4.0,+390700950283//+393479446052
Sardegna,Museo Stazione dell'Arte,"museo, galleria, raccolta",Ulassai,SP 11,39.803663782,9.511429619,6.0,+390782787055
Sardegna,Museo Archeologico di Viddalba,"museo, galleria, raccolta",Viddalba,"Via Giovanni Maria Angioy, 5",40.916394607,8.894386826,3.0,+393273834604
Sardegna,Museo Civico Archeologico Villa Leni,"museo, galleria, raccolta",Villacidro,"Piazza Zampillo, 1",39.456778972,8.732123755,2.0,+3907093442215
Sardegna,Area archeologica Troculu,area o parco archeologico,Villagrande Strisaili,"SS 389 var. Buddusò Correboi, località Genna Troculu",39.989221335,9.408174082,3.0,+39078232704//+393939020917
Sardegna,Area di Sa Carcaredda,area o parco archeologico,Villagrande Strisaili,SS 389 var. Buddusò Correboi,39.99218819,9.427436893,3.0,+39078232704//+393939020917
Sardegna,S'Arcu 'e Is Forros,area o parco archeologico,Villagrande Strisaili,"SS 389 var. Buddusò Correboi, località Arcu e Is Forros",40.002023634,9.400515256,3.0,+39078232704//+393939020917
Sardegna,Area di Pottu Codinu,area o parco archeologico,Villanova Monteleone,SS 292,40.487202751,8.519114182,2.0,+393381586752//+393381809055//+393668412916//+39079960607
Sardegna,Museo Etnografico Sa Domo Manna,"museo, galleria, raccolta",Villanova Monteleone,"Via Papa Giovanni XXIII, 8",40.503002947,8.471421837,2.0,+39079960268
Sardegna,Villaggio Nuragico Nuraghe Appiu,area o parco archeologico,Villanova Monteleone,"Strada consortile Monte Cuccu, Baddu 'e Pessighes",40.445358988,8.420052163,2.5,+393381586752//+393381809055//+393668412916
Sardegna,Parco e Museo Genna Maria,area o parco archeologico,Villanovaforru,"Piazza Costituzione, 4/ Località Monte Genna Maria",39.632759931,8.868341374,4.0,+390709300050//+390709300048
Sardegna,Area archeologica Su Mulinu,area o parco archeologico,Villanovafranca,Strada Comunale Cuccuru Meu,39.634364269,8.994152835,3.0,+390709367458
Sardegna,Civico Museo Archeologico Su Mulinu,"museo, galleria, raccolta",Villanovafranca,"Piazza Risorgimento, 6",39.645751062,9.001293255,3.0,+390709367458
Sardegna,Parco Archeologico Montessu,area o parco archeologico,Villaperuccio,"SP 80, Località Montessu",39.133402932,8.667470024,5.0,+393407433521
Sardegna,Fortezza Vecchia,monumento o complesso monumentale,Villasimius,Località Torre Vecchia,39.116166082,9.503739414,1.0,+390707930290//+390707930232
Sardegna,Museo Archeologico di Villasimius,"museo, galleria, raccolta",Villasimius,"Via Aventino Frau, 5",39.14374111,9.518478568,3.0,+390707930290
Sardegna,Area archeologica Nuraghe Losa,area o parco archeologico,Abbasanta,SS 131 Carlo Felice,40.116863973,8.790317545,5.0,+39078552302//+393319128790
Sardegna,Necropoli di Li Muri di Arzachena,area o parco archeologico,Arzachena,SS 427,41.07012655,9.321715088,4.0,+393457200094
Sardegna,Museo Rossoblù,"museo, galleria, raccolta",Quartu Sant'Elena,"Via Armando Diaz, 77",39.243800843,9.184345107,5.0,+393476413293
Sardegna,Tempio di Malchittu,area o parco archeologico,Arzachena,Località Malchittu,41.0790339,9.4105799,4.0,+393457200094
Sardegna,Area archeologica Su Nuraxi,area o parco archeologico,Barumini,"Viale Su Nuraxi, s.n.c./ SP 44 km 0,55",39.705902323,8.990714021,14.0,+390709368128//+393771805443//+393771716166
Sardegna,Museo Archeologico Nazionale,"museo, galleria, raccolta",Cagliari,"Piazza Arsenale, 1",39.222394763,9.116764118,7.0,+3907060518245//+3907060518248//+39070655911
Sardegna,Pinacoteca nazionale di Cagliari,"museo, galleria, raccolta",Cagliari,"Piazza Arsenale, 1",39.22294634,9.117273328,4.0,+39070662496//+39070655911
Sardegna,Centro di educazione ambientale - Laguna di Nora,"museo, galleria, raccolta",Pula,"Viale Nora, s.n.c. - Laguna di Nora",38.98909642,9.012144276,8.0,+390709209544//+393331864668
Sardegna,Spazio San Pancrazio,monumento o complesso monumentale,Cagliari,"Piazza Arsenale, 1",39.22165829,9.116773169,4.0,+3907060518245//+3907060518248//+39070655911
Sardegna,Museo dell'archeologia e del territorio - MATER,"museo, galleria, raccolta",Mamoiada,"Via G. Manno, 18",40.212869227,9.283694547,4.0,+390784569018
Sardegna,Museo della Valle dei Nuraghi del Logudoro-Meilogu,"museo, galleria, raccolta",Torralba,"Via Carlo Felice, 151",40.513930458,8.765953759,6.0,+39079847481//+393664353484//+393479138479
Sardegna,Museo Antoine De Saint-Exupéry - MASE,"museo, galleria, raccolta",Alghero,"Via Porto Conte, s.n.c., Torre di Porto Conte",40.593630073,8.204315564,5.0,+393295658813
Sardegna,META - Museo etnografico di Abbasanta,"museo, galleria, raccolta",Abbasanta,"Via S. Caterina, 25",40.124741737,8.821898921,2.5,+39078552302//+393319128790
Sardegna,Compendio Garibaldino di Caprera,"museo, galleria, raccolta",La Maddalena,Isola di Caprera,41.216430485,9.461617533,7.0,+390789727162//+390789726015//+393357505401
Sardegna,Memoriale Giuseppe Garibaldi,"museo, galleria, raccolta",La Maddalena,Forte Arbuticci - Isola di Caprera,41.229399188,9.471098627,6.0,+390789727162//+390789726015
Sardegna,MAGMMA - Museo d’arte grafica mediterraneo Marchionni,"museo, galleria, raccolta",Villacidro,"Via Vittorio Emanuele, 15",39.457970751,8.733165303,5.0,+393403473320
Sardegna,Museo Casa Deriu Tresnuraghes,"museo, galleria, raccolta",Tresnuraghes,"Via San Giorgio, 16",40.251247378,8.518426127,4.0,+39078535509
Sardegna,CIMA - Civico Museo di Allai,"museo, galleria, raccolta",Allai,"Via Parrocchia, 15",39.956759438,8.864133596,3.0,+393288789521
Sardegna,Antiquarium Turritano e zona archeologica,"museo, galleria, raccolta",Porto Torres,"Via Ponte Romano, 99",40.838353453,8.397059483,4.0,+39079514433
Sardegna,Carcere baronale spagnolo,"museo, galleria, raccolta",Seui,"Via Sassari, 47",39.840437717,9.320536148,5.0,+390782539002
Sardegna,Casa Farci,"museo, galleria, raccolta",Seui,"Via Roma, 166",39.839701221,9.322548836,5.0,+390782539002
Sardegna,Area archeologica di Nora,area o parco archeologico,Pula,"Viale Nora, s.n.c.",38.984184856,9.015866942,6.0,+390709209366//+390709209138
Sardegna,Galleria Civica,"museo, galleria, raccolta",Seui,"Via della Sapienza, 38",39.839596479,9.324165586,5.0,+390782539002
Sardegna,Altare prenuragico di Monte d'Accoddi,area o parco archeologico,Sassari,Strada vicinale Monte d'Accoddi,40.790712457,8.448955222,4.0,+393348074449//+390792008072//+39079514433
Sardegna,Museo nazionale archeologico ed etnografico Giovanni Antonio Sanna,"museo, galleria, raccolta",Sassari,"Via Roma, 64",40.722540468,8.567672176,3.0,+39079272203
Sardegna,Pinacoteca nazionale di Sassari,"museo, galleria, raccolta",Sassari,"Via Santa Caterina, 4",40.72719247,8.559657362,4.0,+39079231560
Sardegna,Area archeologica di Tharros,area o parco archeologico,Cabras,"SP 6, San Giovanni di Sinis",39.873435968,8.440882669,6.5,+390783370019
Sardegna,S'Omu de sa maja,"museo, galleria, raccolta",Seui,"Via della Sapienza, s.n.c.",39.839926141,9.323699622,5.0,+390782539002
Sardegna,Cripta di Santa Restituta,area o parco archeologico,Cagliari,"Via Sant'Efisio, 14",39.21894535,9.112870527,2.0,+393662562826
Sardegna,Carcere Spagnolo - Sa Bovida,"museo, galleria, raccolta",Aritzo,"Via G. Marconi, s.n.c.",39.956306057,9.196234301,2.0,+393898731853//+390784627200
Sardegna,Parco-Museo S'Abba Frisca,"museo, galleria, raccolta",Dorgali,SS 125 Località Vallata di Littu,40.307278363,9.629401772,8.5,+393337655405//+393382380089//+393391464112//+393356569072
Sardegna,Area di S'Ortali e Su Monti,area o parco archeologico,Tortolì,Località S'Ortali e Su Monti,39.913263435,9.667972502,3.0,+39078232704
Sardegna,Cripta e Chiesa di San Lussorio,monumento o complesso monumentale,Fordongianus,SS 388,39.989712888,8.79819782,2.5,+39078360157
Sardegna,Museo diocesano Arborense,"museo, galleria, raccolta",Oristano,"Piazza Duomo, 1",39.902720678,8.590039922,4.0,+393425887847
Sardegna,Nuraghe Armungia,area o parco archeologico,Armungia,"Piazza Municipio, s.n.c.",39.522375799,9.383929958,1.5,+390709589011
Sardegna,Museo Archeologico della Città,"museo, galleria, raccolta",Alghero,"Via Carlo Alberto, 72",40.557353096,8.314130211,5.0,+39079979054//+39079980729
Sardegna,Museo Laboratorio dell'Età Nuragica - LABENUR,"museo, galleria, raccolta",Arzachena,"SP 115 - Stazione Ferroviaria, km 207,94",41.081626483,9.372607576,5.0,+393408209749//+393337389973
Sardegna,Parco urbano di Cannas di Sotto,area o parco archeologico,Carbonia,"Corso Iglesias, s.n.c./ Via Fertilia, s.n.c.",39.163079295,8.532182936,5.0,+3907811867304//+393458886058
Sardegna,Sito archeologico nuragico Lu Brandali,area o parco archeologico,Santa Teresa Gallura,"SP 90 - Via Capotesta, s.n.c.",41.233539787,9.175377523,5.0,+393498347698//+393477412166//+393920547979
Sardegna,Torre di Longosardo,monumento o complesso monumentale,Santa Teresa Gallura,"Via Bechi, s.n.c.",41.24552309,9.192536992,3.0,+393498347698//+393477412166//+393920547979
Sardegna,Domus de janas di Montalè,area o parco archeologico,Sassari,"Via Medaglie d’Oro, s.n.c.",40.748256902,8.511389012,4.0,+390792008072
Sardegna,Palazzo Ducale,monumento o complesso monumentale,Sassari,"Piazza del Comune, 1",40.726604737,8.559391856,4.0,+390792008072
Sardegna,Museo multimediale Torre di San Vittorio,"museo, galleria, raccolta",Carloforte,"Viale Osservatorio Astronomico, s.n.c.",39.13715209,8.311867795,5.0,+3907818589200//+3907818589207//+393331816535
Sardegna,Museo Geo-Mineralogico Naturalistico,"museo, galleria, raccolta",La Maddalena,"Borgo di Stagnali, Isola di Caprera",41.198126481,9.453760768,2.5,+393385940560
Sardegna,MIF - Museo dell'imprenditoria femminile Donna Francesca Sanna Sulis,"museo, galleria, raccolta",Muravera,"Via Guglielmo Marconi, 99",39.419568842,9.57724035,1.5,+393939023141
Sardegna,Museo del Sughero,"museo, galleria, raccolta",Calangianus,"Via San Francesco, 3",40.922316239,9.191277074,3.0,+39079662034//+393463693859
Sardegna,Ecomuseo delle Acque di Barbagia,"museo, galleria, raccolta",Sadali,"Via Grazia Deledda, s.n.c. - Infopoint",39.814577405,9.272619608,10.0,+393206253278
Sardegna,Museo Storico della Cava di Cala Francese,"museo, galleria, raccolta",La Maddalena,"Cala Francese, Isola di La Maddalena",41.220710522,9.378757671,5.0,+393385940560
Sardegna,Casa Devilla,"museo, galleria, raccolta",Aritzo,"Via Caserma, 1",39.957527153,9.196759126,2.0,+393898731853//+390784627200
Sardegna,Museo Mura,"museo, galleria, raccolta",Aritzo,"Pratz'e Iscola, 11",39.955466412,9.197740031,2.0,+393898731853//+390784627200
Sardegna,Giardino Sonoro - P.S. Museum,"museo, galleria, raccolta",San Sperate,"Via oriana Fallaci, s.n.c.",39.357057661,8.998463167,5.0,+393245875094
Sardegna,EMA - Ecomuseo del Mare e dell’Acqua,monumento o complesso monumentale,Sassari,"Viale Adua, s.n.c.",40.718685414,8.578112772,8.0,+393519359980
Sardegna,Archivio Digitale e installazione museale Rixe per la cultura Tabarchina,"museo, galleria, raccolta",Calasetta,"Via Umberto I, 61",39.109279973,8.371082433,3.0,+393473626183//+393288836251//+390781840717
Sardegna,Museo Civico Pedru Serra,"museo, galleria, raccolta",Sagama,"Via Regina Elena, 27",40.261402113,8.578036968,3.0,+393288789521
Sardegna,Centro di Documentazione e Studio sulla Sartiglia,"museo, galleria, raccolta",Oristano,"Via Eleonora, 15",39.903396999,8.591380843,2.0,+390783303159//+390783302481
Sicilia,Museo del Satiro (Chiesa di Sant'Egidio),"museo, galleria, raccolta",Mazara del Vallo,"piazza plebiscito, Mazara del Vallo, Italia",37.6516467,12.5882062,6.0,0923933917
Sicilia,Museo regionale casa-museo Antonino Uccello a Palazzolo Acreide,"museo, galleria, raccolta",Palazzolo Acreide,"via machiavelli, Palazzolo Acreide, Italia",37.0627777,14.9022281,2.0,0931881499
Sicilia,Area archeologica Parco Forza,area o parco archeologico,Ispica,"Ispica, Italia",36.7858319,14.907637,2.0,0932952608
Sicilia,Villa Romana di San Biagio,area o parco archeologico,Terme Vigliatore,"via nazionale, Terme Vigliatore, Italia",38.1258908,15.1359684,0.0,0909740488
Sicilia,Antiquarium iconografico e Mura Timoleontee di Capo Soprano,area o parco archeologico,Gela,"viale indipendenza, Gela, Italia",37.0723367,14.2289295,4.0,093391226//0933930975
Sicilia,Chiostro Santa Maria la Nuova (Duomo),monumento o complesso monumentale,Monreale,"piazza guglielmo il buono, Monreale, Italia",38.117076425936666,13.344571841817114,6.0,0917071425//0917071411//0916404403
Sicilia,Palazzo Ajutamicristo,monumento o complesso monumentale,Palermo,"via garibaldi, Palermo, Italia",38.1135383,13.367108349385964,0.0,0917071425//3357957161
Sicilia,Museo delle Tradizioni silvo-pastorali di Mistretta,"museo, galleria, raccolta",Mistretta,"via libertà, Mistretta, Italia",37.929023,14.3628964,0.0,0921381696
Sicilia,Villino Florio e Giardino,area o parco archeologico,Palermo,"viale regina margherita, Palermo, Italia",38.1202481,13.3431928,0.0,0917025471//0917071425
Sicilia,Chiostro di San Giovanni degli Eremiti,monumento o complesso monumentale,Palermo,"via dei benedettini, Palermo, Italia",38.1084917,13.3558602,6.0,0917071425//0916515019//0917071411
Sicilia,Castello di Bauso,monumento o complesso monumentale,Villafranca Tirrena,"piazza castello, Villafranca Tirrena, Italia",38.23188685,15.435171229694838,0.0,090334948
Sicilia,Bagni di Cefalà Diana,area o parco archeologico,Cefalà Diana,"Cefalà Diana, Italia",37.9151751,13.463549,0.0,0917071425//0918291551
Sicilia,Area archeologica di Monte Sant'Angelo e Castel Sant'Angelo,area o parco archeologico,Licata,"Licata, Italia",37.1016361,13.9376147,0.0,0922772602
Sicilia,Area archeologica di Licata,area o parco archeologico,Licata,"Licata, Italia",37.1016361,13.9376147,0.0,0922772602
Sicilia,Area archeologica Teatro antico e Antiquarium di Tindari,area o parco archeologico,Patti,"via del teatro greco, Patti, Italia",38.13854384872103,14.96543751112948,6.0,0941369023
Sicilia,Museo regionale di Kamarina,"museo, galleria, raccolta",Ragusa,"Ragusa, Italia",36.9219828,14.7213455,4.0,0932826004
Sicilia,Zona Archeologica,"museo, galleria, raccolta",Ravanusa,"Ravanusa, Italia",37.2679139,13.9732545,0.0,0922552611
Sicilia,Biblioteca - Museo regionale Luigi Pirandello di Agrigento,"museo, galleria, raccolta",Agrigento,"Agrigento, Italia",37.3122991,13.57465,4.0,0922511826
Sicilia,Terme della Rotonda,area o parco archeologico,Catania,"via della mecca, Catania, Italia",37.5039663,15.0831271,0.0,0957150508
Sicilia,Antiquarium di Monte Adranone,"museo, galleria, raccolta",Sambuca di Sicilia,"Sambuca di Sicilia, Italia",37.6477395,13.1110313,6.0,0925946083
Sicilia,Terme Romane dell'Indirizzo,area o parco archeologico,Catania,"piazza currò, Catania, Italia",37.50094865,15.085990294446532,0.0,0957150508
Sicilia,Antiquarium di Monte Kronio - Stufe di S. Calogero,"museo, galleria, raccolta",Sciacca,"Sciacca, Italia",37.5064786,13.0823323,4.0,092528989
Sicilia,Museo archeologico regionale Bernabo' Brea a Lipari,"museo, galleria, raccolta",Lipari,"via del castello, Lipari, Italia",38.46720040958127,14.95646871892736,6.0,0909880174//0909880175
Sicilia,Area archeologica di Morgantina,area o parco archeologico,Aidone,"Aidone, Italia",37.4154209,14.445276,6.0,093587955
Sicilia,"Museo archeologico ""Salvatore Lauricella""","museo, galleria, raccolta",Ravanusa,"corso della repubblica, Ravanusa, Italia",37.2679168,13.9750818,0.0,NON REGISTRATO
Sicilia,Valle dei Templi di Agrigento,area o parco archeologico,Agrigento,"via panoramica dei templi , Agrigento, Italia",37.2951817,13.6000995,10.0,NON REGISTRATO
Sicilia,Area archeologica di Akrai,area o parco archeologico,Palazzolo Acreide,"Palazzolo Acreide, Italia",37.061855,14.9041697,4.0,0931876602
Sicilia,Santa Maria dei Greci,monumento o complesso monumentale,Agrigento,"via santa maria dei greci, Agrigento, Italia",37.3129813,13.5781662,0.0,0922552611
Sicilia,Museo regionale interdisciplinare di Enna,"museo, galleria, raccolta",Enna,"piazza mazzini, Enna, Italia",37.566621100000006,14.282717000593411,0.0,09355076304//09355076323
Sicilia,Area archeologica Halaesa Arconidea,area o parco archeologico,Tusa,"Tusa, Italia",37.983855,14.236065,0.0,NON REGISTRATO
Sicilia,Area archeologica Gibil Gabib,area o parco archeologico,Caltanissetta,"Caltanissetta, Italia",37.4899412,14.0631618,0.0,0934554964
Sicilia,Area archeologica Selinunte,area o parco archeologico,Castelvetrano,"via selinunte, Castelvetrano, Italia",37.6747521,12.7949883,6.0,092446277
Sicilia,Area archeologica e Antiquarium di Sabucina,area o parco archeologico,Caltanissetta,"Caltanissetta, Italia",37.4899412,14.0631618,0.0,0934554964
Sicilia,Area archeologica e Antiquarium di Solunto,area o parco archeologico,Santa Flavia,"via collegio romano, Santa Flavia, Italia",38.09191111161576,13.532400566616872,4.0,091905043//091909339
Sicilia,Museo archeologico regionale di Centuripe,"museo, galleria, raccolta",Centuripe,"via ss. crocifisso, Centuripe, Italia",37.62224712517353,14.741658426459338,0.0,093573079
Sicilia,Teatro Greco Romano di Taormina,area o parco archeologico,Taormina,"via del teatro greco, Taormina, Italia",37.852929121406525,15.290567555301688,10.0,0942628738//094223220//094224291
Sicilia,Castello medievale di Caccamo,area o parco archeologico,Caccamo,"via del castello, Caccamo, Italia",37.9319276,13.6605767,4.0,0918103207//0918149252
Sicilia,Convento della Magione,monumento o complesso monumentale,Palermo,"piazza magione, Palermo, Italia",38.1130081,13.3696503,0.0,0917071425//0917071411
Sicilia,Giardino di Villa Napoli e Piccola Cuba,monumento o complesso monumentale,Palermo,"via f. speciale, Palermo, Italia",38.1061861890964,13.33619745003384,0.0,3346001743//0917071425
Sicilia,Area archeologica monumentale di Castello a Mare,area o parco archeologico,Palermo,"via crispi, Palermo, Italia",38.1255189,13.36311,2.0,0917071317
Sicilia,Museo archeologico regionale della Badia,"museo, galleria, raccolta",Licata,"Licata, Italia",37.10329,13.94061,0.0,0922772602
Sicilia,Area archeologica di Palike',area o parco archeologico,Mineo,"Mineo, Italia",37.2648752,14.6908487,0.0,3315771468
Sicilia,Castello della Favara a Maredolce,"museo, galleria, raccolta",Palermo,"via giafar, Palermo, Italia",38.0873113,13.4076963,0.0,0917071425//3357957161
Sicilia,Castello della Cuba e Necropoli Punica,area o parco archeologico,Palermo,"corso calatafimi, Palermo, Italia",38.1025407,13.3289924,2.0,0917071425//091590299
Sicilia,Museo archeologico regionale di Marianopoli,"museo, galleria, raccolta",Marianopoli,"viale regione siciliana, Marianopoli, Italia",37.59910338848314,13.913222539950656,0.0,0934554964
Sicilia,Museo regionale Palazzo Mirto,"museo, galleria, raccolta",Palermo,"via merlo, Palermo, Italia",38.1165756,13.3674993,6.0,0916164751//0916167541
Sicilia,Oratorio dei Bianchi,"museo, galleria, raccolta",Palermo,"piazzetta dei bianchi, Palermo, Italia",38.1159449,13.3714174,8.0,0916173080//0916165305//0916230068
Sicilia,Casina Cinese,monumento o complesso monumentale,Palermo,"via duca degli abruzzi, Palermo, Italia",38.1662163,13.3302067,0.0,0917071317
Sicilia,Area archeologica e Antiquarium di Megara Hyblaea,area o parco archeologico,Augusta,"Augusta, Italia",37.2369363,15.2196575,4.0,09314508211
Sicilia,Area archeologica dell'Antica Cossyra,area o parco archeologico,Pantelleria,"Pantelleria, Italia",36.8314576,11.9450395,0.0,0923808111
Sicilia,Museo archeologico regionale Paolo Orsi di Siracusa,"museo, galleria, raccolta",Siracusa,"viale teocrito, Siracusa, Italia",37.0754123,15.2857873,8.0,0931489511//0931489532
Sicilia,Antiquarium di Milazzo,area o parco archeologico,Milazzo,"via impallomeni, Milazzo, Italia",38.22606367442193,15.2412067571643,0.0,0909223471
Sicilia,Area archeologica Agora',area o parco archeologico,Ragusa,"Ragusa, Italia",36.9219828,14.7213455,4.0,0932826004
Sicilia,Area archeologica di Leontinoi,area o parco archeologico,Carlentini,"Carlentini, Italia",37.2758806,15.0149783,0.0,0957832962
Sicilia,Castello di Montalbano Elicona,monumento o complesso monumentale,Montalbano Elicona,"via castello, Montalbano Elicona, Italia",38.0236696,15.0103973,3.0,09036746433
Sicilia,Castello della Zisa,area o parco archeologico,Palermo,"piazza zisa, Palermo, Italia",38.1157823,13.341109,6.0,0916520269//0917071411
Sicilia,Anfiteatro Romano di Catania,area o parco archeologico,Catania,"piazza stesicoro, Catania, Italia",37.5074251,15.085904747430828,0.0,0957150508
Sicilia,Grotta del Genovese - Levanzo,area o parco archeologico,Favignana,"Favignana, Italia",37.9314018,12.3274291,0.0,0923808111
Sicilia,Museo archeologico regionale Lilibeo Marsala - Baglio Anselmi,"museo, galleria, raccolta",Marsala,"lungomare boeo, Marsala, Italia",37.8020884,12.4248873,4.0,0923952535//0923952535
Sicilia,Area archeologica Cave di Cusa Vincenzo Tusa,area o parco archeologico,Campobello di Mazara,"Campobello di Mazara, Italia",37.635838,12.744338,2.0,092446277
Sicilia,Museo regionale interdisciplinare di Ragusa,"museo, galleria, raccolta",Ragusa,"via natalelli, Ragusa, Italia",36.923601,14.7261401,0.0,0932622963//0932622963
Sicilia,Museo archeologico regionale di Lentini,"museo, galleria, raccolta",Lentini,"via museo, Lentini, Italia",37.28850456039487,15.001932180417898,0.0,0957832962
Sicilia,Museo regionale d'Arte moderna e contemporanea di Palermo,"museo, galleria, raccolta",Palermo,"corso vittorio emanuele, Palermo, Italia",38.1124194,13.3533823,6.0,091320532//0916090166
Sicilia,Museo regionale Agostino Pepoli di Trapani - Museo interdisciplinare,"museo, galleria, raccolta",Trapani,"via conte pepoli, Trapani, Italia",38.018939729546375,12.54247101668273,6.0,0923553269//0923535444
Sicilia,Museo regionale della Ceramica di Caltagirone,"museo, galleria, raccolta",Caltagirone,"via roma, Caltagirone, Italia",37.232083,14.5197832,4.0,093358418//093358423//093326972
Sicilia,"Area archeologica della Neapolis, Orecchio di Dionisio e Teatro Greco",area o parco archeologico,Siracusa,"via del teatro greco, Siracusa, Italia",37.0856,15.28407,10.0,093166206
Sicilia,Area archeologica e Villa Romana del Tellaro,area o parco archeologico,Noto,"Noto, Italia",36.8908864,15.0706454,0.0,0931573883
Sicilia,Ipogeo Romano,area o parco archeologico,Catania,"via g. sanfilippo, Catania, Italia",37.51366583510854,15.08021203994833,0.0,0957150508
Sicilia,Area archeologica Segesta,area o parco archeologico,Calatafimi-Segesta,"Calatafimi-Segesta, Italia",37.9136378,12.8618933,6.0,0924952356
Sicilia,Museo regionale di Adrano,"museo, galleria, raccolta",Adrano,"piazza umberto i, Adrano, Italia",37.66048,14.83759,2.0,0957691622//0957602608
Sicilia,Area archeologica Caucana,area o parco archeologico,Santa Croce Camerina,"via delle anticaglie, Santa Croce Camerina, Italia",36.78818347420917,14.506530958461992,0.0,3476974535
Sicilia,Museo archeologico regionale di Agrigento,"museo, galleria, raccolta",Agrigento,"Agrigento, Italia",37.3122991,13.57465,8.0,0922401565//092220014
Sicilia,Ex Stabilimento Florio di Favignana,monumento o complesso monumentale,Favignana,"Favignana, Italia",37.9314018,12.3274291,6.0,NON REGISTRATO
Sicilia,Galleria regionale di Palazzo Bellomo di Siracusa – Museo interdisciplinare,"museo, galleria, raccolta",Siracusa,"via capodieci, Siracusa, Italia",37.0575729,15.2941517,8.0,093169511//093169529
Sicilia,Museo regionale interdisciplinare di Messina,"museo, galleria, raccolta",Messina,"viale della libertà, Messina, Italia",38.2174767,15.5656693,8.0,090361292
Sicilia,Zona Archeologica,area o parco archeologico,Naro,"Naro, Italia",37.29622,13.7915674,0.0,0922552611
Sicilia,Area archeologica Vassallaggi,area o parco archeologico,San Cataldo,"San Cataldo, Italia",37.4914458,13.9935156,0.0,0934554964
Sicilia,Villa Romana di Patti,area o parco archeologico,Patti,"via giovanni xxiii, Patti, Italia",38.1470589,14.9808362,4.0,0941361593
Sicilia,Galleria regionale della Sicilia di Palazzo Abatellis di Palermo – Museo interdisciplinare,"museo, galleria, raccolta",Palermo,"via alloro, Palermo, Italia",38.1160926,13.3694054,8.0,0916230011//0916165305//0916230068//0916230047
Sicilia,Teatro Romano e Odeon di Catania,area o parco archeologico,Catania,"via vittorio emanuele, Catania, Italia",37.50293595,15.082842766671142,6.0,0957150508//095311004
Sicilia,Museo archeologico di Palazzo Cappellani,"museo, galleria, raccolta",Palazzolo Acreide,"via gaetano italia, Palazzolo Acreide, Italia",37.0618771,14.9056396,0.0,0931875575
Sicilia,Area archeologica Bagni Greci di Gela,area o parco archeologico,Gela,"via europa, Gela, Italia",37.0742041,14.2317363,0.0,0933912626
Sicilia,Chiesa di San Francesco Borgia,monumento o complesso monumentale,Catania,"via crociferi, Catania, Italia",37.5032901,15.0847567,0.0,095310762
Sicilia,Area archeologica e Antiquarium di Himera,area o parco archeologico,Termini Imerese,"Termini Imerese, Italia",37.983651,13.695554,4.0,0918140128//0918140906//0918140906
Sicilia,Area archeologica di Capo d'Orlando,area o parco archeologico,Capo d'Orlando,"Capo d'Orlando, Italia",38.1595733,14.7450733,0.0,0941955401
Sicilia,Area archeologica di Sant'Angelo Muxaro,area o parco archeologico,Sant'Angelo Muxaro,"Sant'Angelo Muxaro, Italia",37.4790152,13.5443155,0.0,0922919806
Sicilia,"Zona Archeologica ""Vito Soldano""",area o parco archeologico,Canicattì,"Canicattì, Italia",37.358942,13.850364,0.0,0922552611
Sicilia,Area archeologica della Villa Romana del Casale a Piazza Armerina,area o parco archeologico,Piazza Armerina,"Piazza Armerina, Italia",37.385946,14.367174,10.0,0935680036
Sicilia,Museo archeologico regionale e Area archeologica di Naxos,"museo, galleria, raccolta",Giardini Naxos,"lungomare schisò giardini naxos, Giardini Naxos, Italia",37.8257934,15.2692452,4.0,0942628738//094251001//0942571813
Sicilia,Casa Museo Giovanni Verga,"museo, galleria, raccolta",Catania,"via sant'anna, Catania, Italia",37.51166,15.0867,4.0,0957150598
Sicilia,Castello Maniace,monumento o complesso monumentale,Siracusa,"Siracusa, Italia",37.0646139,15.2907196,2.0,0931464420
Sicilia,Area archeologica e Antiquarium Eraclea Minoa,area o parco archeologico,Cattolica Eraclea,"Cattolica Eraclea, Italia",37.44084,13.392054,4.0,0922846005
Sicilia,Area archeologica Villa Bonanno,area o parco archeologico,Palermo,"piazza della vittoria, Palermo, Italia",38.11235859999999,13.355301709826016,0.0,0917071317
Sicilia,Area Archeologica dell’antica Apollonia,area o parco archeologico,San Fratello,"San Fratello, Italia",38.0134424,14.5973915,0.0,09036746433
Sicilia,Area archeologica di Cava d'Ispica,area o parco archeologico,Modica,"Modica, Italia",36.8589209,14.7613018,4.0,0932771667
Sicilia,Museo regionale di Terrasini,"museo, galleria, raccolta",Terrasini,"lungomare peppino impastato, Terrasini, Italia",38.1508143,13.0742257,6.0,8810989//8683327
Sicilia,Area Archeologica. Grotta di San Teodoro,area o parco archeologico,Acquedolci,"Acquedolci, Italia",38.0560399,14.5819013,0.0,0941730005
Sicilia,Museo regionale interdisciplinare di Caltanissetta,"museo, galleria, raccolta",Caltanissetta,"Caltanissetta, Italia",37.4899412,14.0631618,4.0,0934567062//0934567086
Sicilia,Museo archeologico regionale di Gela,"museo, galleria, raccolta",Gela,"corso vittorio emanuele, Gela, Italia",37.0669592,14.2482294,4.0,0933912626
Sicilia,Zona archeologica di Tranchina,"museo, galleria, raccolta",Sciacca,"Sciacca, Italia",37.5064786,13.0823323,0.0,0922552611
Sicilia,Castello di Spadafora,monumento o complesso monumentale,Spadafora,"via nazionale, Spadafora, Italia",38.22294,15.38009,0.0,09036894435
Sicilia,Museo regionale di Aidone,"museo, galleria, raccolta",Aidone,"Aidone, Italia",37.4154209,14.445276,6.0,093587307
Sicilia,Area archeologica Monte Jato,area o parco archeologico,San Cipirello,"San Cipirello, Italia",37.96296,13.1753795,0.0,0918577943
Sicilia,Castello Grifeo,monumento o complesso monumentale,Partanna,"piazza b. graffeo, Partanna, Italia",37.72788,12.88747,4.0,0924923970
Sicilia,Monastero Maria SS. della Valle - Badiazza,monumento o complesso monumentale,Messina,"Messina, Italia",38.1937571,15.5542082,0.0,3488831172
Sicilia,Museo archeologico regionale Antonino Salinas di Palermo,"museo, galleria, raccolta",Palermo,"via bara all'olivella, Palermo, Italia",38.1213026,13.3619652,0.0,0916116807//0916116806//0916110740
Sicilia,Area archeologica di Monte Adranone,area o parco archeologico,Sambuca di Sicilia,"Sambuca di Sicilia, Italia",37.6477395,13.1110313,6.0,0925946083
Sicilia,Complesso Minerario di Trabia Tallarita,monumento o complesso monumentale,Riesi,"Riesi, Italia",37.2819611,14.0824138,4.0,0934554964
Sicilia,Area archeologica Santa Venera al Pozzo,area o parco archeologico,Aci Catena,"via alimena, Aci Catena, Italia",37.5833364,15.153924,0.0,0957150508
Sicilia,Convento della Croce,monumento o complesso monumentale,Scicli,"Scicli, Italia",36.7935701,14.7069644,2.0,0932249440
Sicilia,Museo naturalistico regionale di Isolabella e Villa Caronia,area o parco archeologico,Taormina,"via nazionale, Taormina, Italia",37.8628167,15.2958844,4.0,0942628738//0942628738
Sicilia,Abbazia e Monastero dei SS. Pietro e Paolo d’Agrò,monumento o complesso monumentale,Casalvecchio Siculo,"Casalvecchio Siculo, Italia",37.958162,15.322588,0.0,09036746433
