Regione,Denominazione,Categoria,Comune,Indirizzo,Latitudine,Longitudine,Prezzo,Contatti
Sardegna,Museo della Statuaria Preistorica in Sardegna,"museo, galleria e/o raccolta",Laconi,"Piazza G. Marconi, 10",39.854474546,9.052288387,5.0,+39 0782 693238// +39 3423507760
Sardegna,MEOC (Museo Etnografico Oliva Carta Cannas),"museo, galleria e/o raccolta",Aggius,"Via Monti di Lizu, 6",40.928234652,9.065460341,4.0,+39 079 621029// +39 3494533208
Sardegna,Museo del Banditismo,"museo, galleria e/o raccolta",Aggius,"Via Pretura, s.n.c.",40.92952259,9.065865433,4.0,+39 079 621029// +39 3494533208
Sardegna,Museo del Giocattolo Tradizionale della Sardegna,"museo, galleria e/o raccolta",Ales,"Via San Simeone, 9",39.774994428,8.831142701,3.0,+39 0783 998072// +39 3406742512
Sardegna,Museo Diocesano d'Arte Sacra,"museo, galleria e/o raccolta",Ales,"Piazza Cattedrale, 1",39.768700749,8.816201724,3.0,+39 0783 91974// +39 3287824283
Sardegna,Area archeologica Anghelu Ruju,area o parco archeologico,Alghero,"SP 42, Strada dei Due Mari",40.632537328,8.326859304,5.0,+39 3294385947
Sardegna,Area archeologica Santu Pedru,area o parco archeologico,Alghero,SS 127bis,40.623011368,8.403106557,10.0,+39 3294385947// +39 3490871963
Sardegna,Museo Casa Manno,"museo, galleria e/o raccolta",Alghero,"Via Santa Barbara, 23",40.55943437,8.312117249,5.0,+39 079 9732026// +39 3911254574
Sardegna,Museo del Corallo,"museo, galleria e/o raccolta",Alghero,"Via XX Settembre, 8",40.55700098,8.31629348,5.0,+39 079 9734045// +39 079 979054
Sardegna,Museo Diocesano d'Arte Sacra,"museo, galleria e/o raccolta",Alghero,"Piazza Duomo, s.n.c.",40.559204168,8.313139939,4.0,+39 079 9733041
Sardegna,Museo Naturalistico Mare Nostrum Aquarium,"museo, galleria e/o raccolta",Alghero,"Via XX Settembre, 1",40.556693484,8.316091079,8.0,+39 079 978333
Sardegna,Nuraghe Palmavera,area o parco archeologico,Alghero,"Località Mastru Antoni, SS 127 bis km 45,450",40.594988547,8.242894099,5.0,+39 3294385947
Sardegna,M.U.B.A. Museo della Bonifica di Arborea,"museo, galleria e/o raccolta",Arborea,"Corso Italia, 24",39.773627097,8.580103276,3.0,+39 0783 802005
Sardegna,Museo Alberto e Giovanni Antonio Castoldi - Museo Mineralogico - Collezione Diorami Dellacà,"museo, galleria e/o raccolta",Arbus,"Piazza G. Rolandi, s.n.c.",39.557369474,8.569823681,5.0,+39 3396939435// +39 3281540281
Sardegna,Ecomuseo della Montagna Sarda o del Gennargentu,"museo, galleria e/o raccolta",Aritzo,"Parco Comunale Pastissu, 3",39.950227438,9.192275755,3.0,+39 3898731853// +39 0784 627200
Sardegna,Museo Bottega Del Fabbro,"museo, galleria e/o raccolta",Armungia,"Vico I G. Mazzini, 14",39.521873277,9.382265965,6.0,+39 070 9589011// +39 070 958076 FAX
Sardegna,Museo Etnografico Sa Domu De Is Ainas,"museo, galleria e/o raccolta",Armungia,"Piazza Municipio, 3",39.522210147,9.383614924,6.0,+39 070 9589011// +39 070 958076 FAX
Sardegna,Museo Storico Emilio e Joyce Lussu,"museo, galleria e/o raccolta",Armungia,"Via E. Lussu, s.n.c.",39.522364098,9.380800883,6.0,+39 070 9589011// +39 070 958076 FAX
Sardegna,Complesso Nuragico La Prisgiona,area o parco archeologico,Arzachena,"SS 427, Località Capichera, 1",41.047599947,9.362415177,4.0,+39 3938975528// +39 3457200094
Sardegna,Nuraghe Albucciu,area o parco archeologico,Arzachena,SS 125 Olbia - Palau,41.067979532,9.409779341,4.0,+39 3457200094
Sardegna,Tomba di Giganti di Coddu Ecchju,area o parco archeologico,Arzachena,"SP 14, Località Coddu Ecchju",41.050189598,9.35595028,4.0,+39 3457200094// +39 3455760643
Sardegna,Tomba di Giganti di Li Lolghi,area o parco archeologico,Arzachena,"SP 115 per Luogosanto, km 45, Località M.Giu di Li Lolghi",41.066652557,9.333793866,4.0,+39 3457200380// +39 3457200094
Sardegna,Tomba di Giganti Moru,area o parco archeologico,Arzachena,SS 125 Olbia - Palau,41.069114938,9.412190539,4.0,+39 3455760538// +39 3457200094
Sardegna,Museo d'Arte Moderna e Contemporanea Antonio Ortiz Echague,"museo, galleria e/o raccolta",Atzara,"Piazza Antonio Ortiz Echague, 1",39.991563268,9.075344563,3.0,+39 0784 65508// +39 3477983242
Sardegna,Polo Museale Casa Zapata,"museo, galleria e/o raccolta",Barumini,"Piazza Giovanni XXIII, s.n.c.",39.702938402,9.00005758,14.0,+39 070 9368476
Sardegna,Museo del Vino - Enoteca Regionale della Sardegna,"museo, galleria e/o raccolta",Berchidda,"Via Gian Giorgio Casu, 5",40.788327955,9.170512742,3.0,+39 079 705268
Sardegna,Museo S'Omo e Sa Majarza,"museo, galleria e/o raccolta",Bidonì,"Via Monte, 9",40.11317212,8.937124793,3.0,+39 0783 69044// +39 3483943842
Sardegna,Museo della Civiltà Pastorale e Contadina,"museo, galleria e/o raccolta",Bitti,"Via Goffredo Mameli, 52",40.477485471,9.381761332,2.5,+39 0784 414314// +39 3333211346
Sardegna,Museo Multimediale del canto a tenore,"museo, galleria e/o raccolta",Bitti,"Via Goffredo Mameli, 52",40.477603091,9.381608638,2.5,+39 0784 414314// +39 3333211346
Sardegna,Sito Archeologico di Romanzesu,area o parco archeologico,Bitti,"SS 389, km 54",40.530342934,9.324816115,4.0,+39 3333211346// +39 0784 414314
Sardegna,Museo Civico Archeologico,"museo, galleria e/o raccolta",Bonorva,"Piazza S. Antonio, s.n.c.",40.418590354,8.766444132,4.0,+39 3485642611// +39 079 867894
Sardegna,Necropoli di Sant'Andrea Priu,area o parco archeologico,Bonorva,"SP 43, località Santa Lucia",40.421647881,8.847212066,6.0,+39 3485642611// +39 079 867894
Sardegna,Museo della Cattedrale di San Pietro di Sorres,"museo, galleria e/o raccolta",Borutta,"San Pietro di Sorres, s.n.c.",40.520138601,8.749316593,3.0,+39 3393312355// +39 079 824001// +39 079 824025
Sardegna,Basilica di San Pietro Extra Muros,monumento o complesso monumentale,Bosa,"Via San Pietro, s.n.c.",40.289260887,8.51990324,2.0,+39 0785 373286// +39 3335445675// +39 3403955048// +39 3298505079
Sardegna,Chiesa di Nostra Signora di  Regnos Altos,monumento o complesso monumentale,Bosa,"Via Canonico Nino Gavino, 9",40.297151072,8.504528164,4.0,+39 0785 373286
Sardegna,Collezione permanente Pinanoteca Antonio Atza,"museo, galleria e/o raccolta",Bosa,"Corso Vittorio Emanuele II, 74",40.295751284,8.501643964,4.5,+39 3288789521
Sardegna,Museo Casa Deriu,"museo, galleria e/o raccolta",Bosa,"Corso Vittorio Emanuele II, 59",40.296003939,8.501736358,4.5,+39 3288789521
Sardegna,Museo delle Conce,"museo, galleria e/o raccolta",Bosa,"Via Sas Conzas, 62",40.294448575,8.500394608,3.5,+39 3288789521
Sardegna,Museo d'Arte Contemporanea,"museo, galleria e/o raccolta",Buddusò,"Corso Antonio Segni, s.n.c.",40.570991034,9.258464706,2.5,+39 079 5610041// +39 3925234333// +39 079 715519
Sardegna,Galleria Henry,monumento o complesso monumentale,Buggerru,"Via Pranu Sartu, s.n.c.",39.398313021,8.399033217,10.0,+39 3341142910
Sardegna,Museo del Minatore,"museo, galleria e/o raccolta",Buggerru,"Via Marina, s.n.c.",39.40030582,8.400630419,2.5,+39 3341142910
Sardegna,Castello di Burgos,monumento o complesso monumentale,Burgos,"Vico Castello, s.n.c.",40.388520713,8.998935249,3.0,+39 3479018930
Sardegna,Museo dei Castelli,"museo, galleria e/o raccolta",Burgos,"Vico Castello, s.n.c.",40.38922335,8.996072213,3.0,+39 3479018930
Sardegna,Museo Civico Giovanni Marongiu,"museo, galleria e/o raccolta",Cabras,"Via Tharros, 121",39.924835242,8.525467942,6.5,+39 0783 290636
Sardegna,Torre di San Giovanni di Sinis,monumento o complesso monumentale,Cabras,"SP 6, Località San Giovanni di Sinis",39.873039012,8.438909733,4.0,+39 0783 370019
Sardegna,Anfiteatro Romano,monumento o complesso monumentale,Cagliari,"Via Sant'Ignazio da Laconi, 27",39.224022454,9.113394178,3.0,+39 3662562826// +39 070 6670168
Sardegna,Castello di San Michele,monumento o complesso monumentale,Cagliari,"Via Sirai, s.n.c.",39.244764832,9.109782936,3.0,+39 070 15240479// +39 3466673657
Sardegna,Centro Comunale d'Arte e Cultura Exmà,"museo, galleria e/o raccolta",Cagliari,"Via San Lucifero, 71",39.214517877,9.120537388,5.0,+39 070 666399// +39 3466673565
Sardegna,Galleria Comunale d'Arte,"museo, galleria e/o raccolta",Cagliari,"Largo giuseppe Dessì, s.n.c.",39.225970756,9.115986708,6.0,+39 070 6776454// +39 070 6777598
Sardegna,Museo d'Arte Siamese Stefano Cardu,"museo, galleria e/o raccolta",Cagliari,"Piazza Arsenale, 1",39.222757067,9.117319475,3.0,+39 070 6776543
Sardegna,Museo del Duomo,"museo, galleria e/o raccolta",Cagliari,"Via Fossario, 5",39.218477224,9.117011055,4.0,+39 3282687731// +39 070 680244
Sardegna,MUTSEU - Museo del Tesoro e Area Archeologica di S. Eulalia,"museo, galleria e/o raccolta",Cagliari,"Vico del Collegio, 2",39.214631864,9.114722791,5.0,+39 3489310225
Sardegna,Antico Palazzo di Città,"museo, galleria e/o raccolta",Cagliari,"Piazza Palazzo, 6",39.218639742,9.116698607,9.0,+39 070 6776482
Sardegna,Raccolta delle Cere Anatomiche di Clemente Susini,"museo, galleria e/o raccolta",Cagliari,"Piazza Arsenale, s.n.c.",39.222009352,9.117132752,1.5,+39 070 6754027// +39 070 6757624// +39 070 6754083
Sardegna,Villa di Tigellio,area o parco archeologico,Cagliari,"Via Carbonazzi, 7",39.22059783,9.108515754,2.0,+39 3662562826
Sardegna,Museo Diocesano di Arte Sacra Santa Giusta,"museo, galleria e/o raccolta",Calangianus,"Via Rosario, s.n.c.",40.921251298,9.195151533,4.0,+39 3393469370// +39 3471884456
Sardegna,Museo d'arte contemporanea MACC,"museo, galleria e/o raccolta",Calasetta,"Via Savoia, 2",39.110896221,8.366680619,4.0,+39 0781 887219
Sardegna,Museo Archeologico Villa Sulcis,"museo, galleria e/o raccolta",Carbonia,"Via Campania, s.n.c.",39.163601197,8.525010773,6.0,+39 0781 1867304// +39 3458886058
Sardegna,Museo del Carbone,"museo, galleria e/o raccolta",Carbonia,"SS 126, Serbariu",39.160440465,8.510568003,8.0,+39 0781 62727
Sardegna,"Museo dei Paleo Ambienti Sulcitani ""E.A. Martel""","museo, galleria e/o raccolta",Carbonia,"SS 126, Serbariu",39.159256476,8.51186103,6.0,+39 3402689043
Sardegna,Parco Archeologico Monte Sirai,area o parco archeologico,Carbonia,"SS 126, Monte Sirai",39.177485729,8.488831428,6.0,+39 0781 1888256// +39 3457559751
Sardegna,Museo Casa del Duca,"museo, galleria e/o raccolta",Carloforte,"Via della Cisterna del Re, 20-24",39.146683895,8.305560575,5.0,+39 0781 8589260// +39 0781 8589207
Sardegna,Museo dell'intreccio Mediterraneo,"museo, galleria e/o raccolta",Castelsardo,"Via Guglielmo Marconi, s.n.c.",40.915678871,8.712581305,3.0,+39 079 6014769// +39 3471118547
Sardegna,Museum Ampuriense - Cattedrale S. Antonio Abate,"museo, galleria e/o raccolta",Castelsardo,"Via Manganella, 42",40.91682331,8.71274258,4.0,+39 079 6393099
Sardegna,Basilica della Santissima Trinità di Saccargia,monumento o complesso monumentale,Codrongianos,SS 597,40.671185823,8.689498643,3.0,+39 3470007882
Sardegna,Museo dell'Olio dr. Giorgio Zampa,"museo, galleria e/o raccolta",Cuglieri,"Corso Umberto I, 68",40.191090542,8.568668139,3.0,+39 3405291175
Sardegna,Museo della Tradizione Olearia Sa Mola De Su Notariu,"museo, galleria e/o raccolta",Dolianova,"Viale Europa, 18",39.375629864,9.176865478,25.0,+39 070 740651// +39 3355468560
Sardegna,Casa Museo,"museo, galleria e/o raccolta",Domus de Maria,"Piazza Vittorio Emauele, s.n.c.",38.944377834,8.865178631,1.6,+39 070 7331424
Sardegna,Area archeologica Tiscali,area o parco archeologico,Dorgali,"Supramonte di Dorgali, località Monte Tiscali",40.241609035,9.492120287,5.0,+39 3484780104
Sardegna,Museo Archeologico Dorgali,"museo, galleria e/o raccolta",Dorgali,"Via Lamarmora, s.n.c",40.291944275,9.588417192,3.0,+39 3484780104
Sardegna,Museo della Foca Monaca,"museo, galleria e/o raccolta",Dorgali,"Viale Bue Marino, 1",40.282870309,9.633157416,5.0,+39 3460366858
Sardegna,Villaggio Nuragico di Serra Orrios,area o parco archeologico,Dorgali,SP 38,40.333727011,9.537758762,5.0,+39 3484780104
Sardegna,Villaggio Nuragico-Romano Nuraghe Mannu,area o parco archeologico,Dorgali,Strada per Nuraghe Mannu,40.259244885,9.620495961,4.0,+39 3484780104
Sardegna,Area archeologica di Antas (Tempio Punico Romano),area o parco archeologico,Fluminimaggiore,Località Antas,39.393767322,8.500245029,4.0,+39 3478174989// +39 0781 580990 FAX
Sardegna,Museo Etnografico Antico Mulino ad acqua Licheri,"museo, galleria e/o raccolta",Fluminimaggiore,"Piazza Antonio Gramsci, s.n.c.",39.435645269,8.497749501,3.0,+39 3478174989// +39 0781 580990 FAX
Sardegna,Area archeologica delle Terme Romane,area o parco archeologico,Fordongianus,"Via Vittorio Veneto, s.n.c.",39.996879548,8.808503021,4.0,+39 0783 60157
Sardegna,Casa Aragonese,monumento o complesso monumentale,Fordongianus,"Via Traiano, 10",39.99538527,8.80930363,4.0,+39 0783 60157
Sardegna,Museo Etnografico sa Domo E' Marras,"museo, galleria e/o raccolta",Galtellì,"Via Garibaldi, 14",40.386027864,9.614598633,5.0,+39 3472211296// +39 3451312441// +39 3471942842
Sardegna,Museo Casa Porcu Satta,"museo, galleria e/o raccolta",Gavoi,"Via Roma, 187",40.158704827,9.194235241,2.0,+39 0784 53633
Sardegna,Civico Museo del Cavallino della Giara,"museo, galleria e/o raccolta",Genoni,"Via Chiesa, 7",39.795152599,9.007223692,3.5,+39 3391676863
Sardegna,P.Ar.C. - Paleo Archeo Centro,"museo, galleria e/o raccolta",Genoni,"Località Santu Antine, s.n.c.",39.798129219,9.002346637,3.5,+39 3391676863
Sardegna,Museo della Giara,"museo, galleria e/o raccolta",Gesturi,"Via Camillo Benso Conte di Cavour, 4",39.732849335,9.019587251,2.0,+39 070 9369052
Sardegna,Casa museo Antonio Gramsci,"museo, galleria e/o raccolta",Ghilarza,"Corso Umberto I, 57",40.123039454,8.837594453,4.0,+39 0785 53075
Sardegna,Parco Archeologico di Pranu Muttedu,area o parco archeologico,Goni,Località Pranu Muttedu,39.567728665,9.266941764,5.0,+39 070 982059
Sardegna,Museo Turcus e Morus,"museo, galleria e/o raccolta",Gonnostramatza,"Piazza San Michele Arcangelo, 5",39.680725683,8.833471808,3.0,+39 0783 92587// +39 3476008108// +39 3477299298
Sardegna,Casa Murgia,"museo, galleria e/o raccolta",Guspini,"Via Petrarca, 2",39.539246177,8.624635363,3.0,+39 070 973173// +39 3384592082// +39 3891643692
Sardegna,"Complesso Minerario di Montevecchio - Miniera di Piccalinna, Palazzina della Direzione e Pozzo Sant'Antonio",monumento o complesso monumentale,Guspini,"Piazzale Rolandi, 2",39.556051312,8.580173821,5.0,+39 070 973173// +39 3384592082// +39 3891643692
Sardegna,Galleria Anglosarda,monumento o complesso monumentale,Guspini,"Miniera Montevecchio, SP 66",39.555574129,8.577790516,12.0,+39 3384592082// +39 3891643692// +39 0781 491300
Sardegna,Museo Monte Tempo,"museo, galleria e/o raccolta",Guspini,"Via Ferracciu, 1",39.540392004,8.625106412,3.0,+39 070 973173// +39 3384592082// +39 3891643692
Sardegna,Grotta di Santa Barbara - Miniera di San Giovanni,monumento o complesso monumentale,Iglesias,"Frazione San Giovanni, Miniera, SS 126",39.289501453,8.489563599,15.0,+39 0781 274507
Sardegna,Museo dell'Arte Mineraria,"museo, galleria e/o raccolta",Iglesias,"Via Roma, 47",39.311332476,8.531991194,5.0,+39 0781 350037// +39 3394051486// +39 3389221392
Sardegna,Porto Flavia,monumento o complesso monumentale,Iglesias,"Strada Provinciale, 83",39.336114836,8.408094875,10.0,+39 0781 274507
Sardegna,Antiquarium Comunale di Irgoli,"museo, galleria e/o raccolta",Irgoli,"Via San Michele, 14",40.409521237,9.632715883,2.0,+39 0784 979074// +39 3806390589
Sardegna,Complesso Nuragico di Janna 'e Pruna e Fonte Sacra di Su Notante,area o parco archeologico,Irgoli,Monte 'E Senes,40.485488131,9.648200379,2.0,+39 0784 979074// +39 3806390589
Sardegna,MARATE - Museo Per L'Arte del Rame e del Tessuto,"museo, galleria e/o raccolta",Isili,"Piazza San Giuseppe Calasanzio, 8",39.74206535,9.106801455,2.5,+39 0782 802641// +39 3804553856// +39 0782 804163 FAX
Sardegna,Nuraghe Is Paras,area o parco archeologico,Isili,"Via Grazia Deledda, s.n.c.",39.748621779,9.107473956,3.0,+39 0782 802641// +39 0782 804163 FAX// +39 3804553856// +39 3391121384// +39 3482231271
Sardegna,Museo Civico Archeologico Etnografico,"museo, galleria e/o raccolta",Ittireddu,"Via San Giacomo, 3",40.544071881,8.902356552,3.0,+39 079 767623// +39 079 767625 FAX
Sardegna,Museo Diocesano La Maddalena,"museo, galleria e/o raccolta",La Maddalena,"Via Baron Manno, s.n.c.",41.213344805,9.405483162,3.0,+39 3491534391
Sardegna,Parco Archeologico Seleni,area o parco archeologico,Lanusei,"Località Bosco Seleni, s.n.c.",39.877159107,9.520683172,4.0,+39 0782 41051
Sardegna,Museo Muda,"museo, galleria e/o raccolta",Las Plassas,"Via Alessandro Manzoni, 4",39.681610465,8.985050062,5.0,+39 070 9790410// +39 3475383803
Sardegna,Museo Naturalistico del Territorio Giovanni Pusceddu,"museo, galleria e/o raccolta",Lunamatrona,"Strada Comunale Mogoro-Lunamatrona, Località Spinarba",39.656782918,8.865562283,6.0,+39 070 9300242// +39 070 9341009// +39 070 9300212 FAX
Sardegna,Collezione Forteleoni,"museo, galleria e/o raccolta",Luras,"Corso Carlo Alberto, 1",40.936605892,9.175382805,5.0,+39 079 647547
Sardegna,"Museo Etnografico Galluras, Il Museo della Femina Agabbadora","museo, galleria e/o raccolta",Luras,"Via Nazionale, 35",40.935480007,9.175296705,5.0,+39 3683376321
Sardegna,Area archeologica di Tamuli,area o parco archeologico,Macomer,Strada Comunale Monte,40.260543322,8.717727983,4.0,+39 3479481337// +39 0785 743044// +39 0785 70475
Sardegna,Museo Etnografico Le Arti Antiche,"museo, galleria e/o raccolta",Macomer,"Corso Umberto I, 225",40.267509337,8.776197603,4.0,+39 0785 743044// +39 0785 70475// +39 3479481337
Sardegna,Necropoli di Filigosa,area o parco archeologico,Macomer,SS 129bis,40.277643516,8.769827597,4.0,+39 0785 743044// +39 0785 70475// +39 3479481337
Sardegna,Nuraghe Santa Barbara,area o parco archeologico,Macomer,SS 131,40.275947973,8.782898061,4.0,+39 0785 743044// +39 0785 70475// +39 3479481337
Sardegna,Nuraghe Succoronis,area o parco archeologico,Macomer,SS 129 bis,40.284626573,8.749743055,4.0,+39 0785 743044// +39 0785 70475// +39 3479481337
Sardegna,Museo della Cultura e del Lavoro,"museo, galleria e/o raccolta",Mamoiada,"Via Sardegna, 17",40.213541102,9.283409602,4.0,+39 0784 569018// +39 0784 56719 FAX
Sardegna,Museo delle Maschere Mediterranee,"museo, galleria e/o raccolta",Mamoiada,"Piazza Europa, 15",40.210999793,9.283692808,5.0,+39 0784 569018// +39 0784 56719 FAX
Sardegna,Casa Museo Is Lollas de Is Aiaiusu,"museo, galleria e/o raccolta",Mandas,"Via S. Antonio, 15",39.653692322,9.126772797,2.0,+39 3491973677// +39 070 987801// +39 3489335805
Sardegna,Museo di Arte Sacra Peregrinatio Fidei,"museo, galleria e/o raccolta",Mandas,"Piazza Carlo Alberto, s.n.c.",39.651179325,9.12674654,2.0,+39 3493607889// +39 070 987801// +39 3489335805
Sardegna,Geomuseo Monte Arci Stefano Incani,"museo, galleria e/o raccolta",Masullas,"Piazza Convento, s.n.c.",39.701379103,8.78069972,4.0,+39 3891777100// +39 0783 990251
Sardegna,Museo I Cavalieri delle Colline,"museo, galleria e/o raccolta",Masullas,"Piazza San Leonardo, s.n.c.",39.701737276,8.784314502,4.0,+39 3891777100// +39 0783 991122
Sardegna,Area archeologica Nuraghe Nolza,area o parco archeologico,Meana Sardo,Località Nolza,39.917013888,9.073189374,3.0,+39 0784 64183// +39 3311092120
Sardegna,Area archeologica Cuccurada,area o parco archeologico,Mogoro,SP 44,39.664461045,8.747882739,2.0,+39 3281156539
Sardegna,Ecomuseo Miniere Rosas,"museo, galleria e/o raccolta",Narcao,"Via Rosas, s.n.c.",39.202707295,8.719455756,8.0,+39 0781 1855139// +39 3292773342
Sardegna,Museo dell'Immagine e del Design Interattivo,"museo, galleria e/o raccolta",Norbello,"Vico San Giovanni, 10",40.138607063,8.833959265,3.0,+39 0785 519927// +39 3473846907
Sardegna,MAN Museo d'Arte Provincia di Nuoro,"museo, galleria e/o raccolta",Nuoro,"Via Sebastiano Satta, 27",40.321512772,9.333757112,5.0,+39 0784 252110// +39 0784 36243 FAX
Sardegna,Museo Deleddiano - Casa Natale di Grazia Deledda,"museo, galleria e/o raccolta",Nuoro,"Via Grazia Deledda, 42",40.323706239,9.336954694,3.0,+39 0784 36101
Sardegna,Museo della Vita e delle Tradizioni Popolari Sarde,"museo, galleria e/o raccolta",Nuoro,"Via Antonio Mereu, 56",40.316755003,9.3356492,5.0,+39 0784 257035// +39 0784 242900// +39 0784 37484 FAX// +39 0784 253943 FAX
Sardegna,Grotta Corbeddu,monumento o complesso monumentale,Oliena,"SP 46, Valle di Lanaitto",40.255452891,9.486493815,5.0,+39 3478249517
Sardegna,Villaggio Nuragico Sa Sedda e Sos Carros,area o parco archeologico,Oliena,"SP 46, Valle di Lanaitto, località Carros",40.258229065,9.486172783,5.0,+39 3478249517
Sardegna,Casa Museo Carmelo Floris,"museo, galleria e/o raccolta",Olzai,"Via S. Anastasio, 30",40.18152812,9.149970445,2.5,+39 3664625022// +39 3486094727
Sardegna,Museo Nivola,"museo, galleria e/o raccolta",Orani,"Via Gonare, 2",40.247027694,9.180189916,5.0,+39 0784 730063
Sardegna,Museo Archeologico Antiquarium Arborense,"museo, galleria e/o raccolta",Oristano,"Piazza Giovanni Corrias, s.n.c.",39.904440581,8.592629777,5.0,+39 0783 791262
Sardegna,Pinacoteca Comunale Carlo Contini,"museo, galleria e/o raccolta",Oristano,"Via Sant'Antonio, s.n.c.",39.904176171,8.589191871,4.0,+39 0783 791262// +39 0783 791204
Sardegna,Area archeologica Su Nuraxi Arrubiu,area o parco archeologico,Orroli,"SP 10, località Su Pranu",39.662138402,9.297700986,4.0,+39 0782 847269// +39 3297867983
Sardegna,Museo Omu Axiu,"museo, galleria e/o raccolta",Orroli,"Via Roma, 46",39.69218923,9.253340754,3.0,+39 0782 845023
Sardegna,Sa domu de Su Nuraxi Arrubiu,"museo, galleria e/o raccolta",Orroli,"Via Roma, 119",39.693808068,9.252515452,5.0,+39 0782 847269// +39 3297867983
Sardegna,Museo del Grano,"museo, galleria e/o raccolta",Ortacesus,"Via J.F. Kennedy, 25",39.539237929,9.083652694,2.0,+39 070 9819027
Sardegna,Su Tempiesu,area o parco archeologico,Orune,Località Sa Costa e Sa Binza,40.41092889,9.412900728,3.0,+39 3287565148
Sardegna,Parco Archeologico e Naturalistico del Taccu di Osini,area o parco archeologico,Osini,Altopiano Del Taccu,39.826070182,9.486141549,3.0,+39 3297643343// +39 3204960927// +39 3287623515
Sardegna,Civico Museo Archeologico Alle Clarisse,"museo, galleria e/o raccolta",Ozieri,"Piazza P. Micca, s.n.c.",40.585950038,9.003232234,5.0,+39 079 7851052// +39 079 7851090// +39 079 787638
Sardegna,Grotta di San Michele,area o parco archeologico,Ozieri,"Via San Michele, s.n.c.",40.580887106,9.004165423,3.0,+39 079 787638
Sardegna,Museo Diocesano d'Arte Sacra,"museo, galleria e/o raccolta",Ozieri,"Via Umberto I, 37",40.584508747,9.002405129,3.0,+39 079 786093// +39 34715460083// +39 079 787638
Sardegna,Pinacoteca Giuseppe Altana,"museo, galleria e/o raccolta",Ozieri,"Via Alcide De Gasperi, 2",40.588031068,9.002038787,3.0,+39 079 787638
Sardegna,Sant'Antioco di Bisarcio,monumento o complesso monumentale,Ozieri,SS 597,40.644717636,8.892771753,3.0,+39 079 787638// +39 079 7851052
Sardegna,Museo Civico Archeologico,"museo, galleria e/o raccolta",Padria,"Via Nazionale, 3",40.397541888,8.630523572,1.0,+39 079 807018// +39 340 2836246// +39 347 9384533
Sardegna,Fortezza di Militare di Monte Altura,monumento o complesso monumentale,Palau,"SS 133, strada per Porto Rafael",41.185211074,9.363028891,5.0,+39 3203407436
Sardegna,Museo Etnografico,"museo, galleria e/o raccolta",Palau,"Via Nazionale, s.n.c.",41.178715705,9.380041979,2.5,+39 3470913032
Sardegna,CULTER - Museo del Coltello Internazionale,"museo, galleria e/o raccolta",Pattada,"Via Vittorio Emanuele, 64",40.581816619,9.110495841,4.0,+39 079 755918
Sardegna,Museo dell'Ossidiana,"museo, galleria e/o raccolta",Pau,"Via San Giorgio, 8",39.792753916,8.803149668,6.0,+39 0783 934011// +39 0783 934011 FAX
Sardegna,Museo della Donna,"museo, galleria e/o raccolta",Pauli Arbarei,"Via Roma, 12/ Via Mannu, 3",39.661770922,8.920809429,2.0,+39 070 939039
Sardegna,Complesso Nuragico Area di Santa Cristina,area o parco archeologico,Paulilatino,SS 131,40.061226346,8.731650517,7.0,+39 0785 55438// +39 0785 55438 FAX// +39 3477746747
Sardegna,Museo Archeologico Etnografico Palazzo Atzori,"museo, galleria e/o raccolta",Paulilatino,"Via Nazionale, 127-129",40.082909257,8.763268893,7.0,+39 0785 55438// +39 0785 55438 FAX// +39 3477746747
Sardegna,Museo Diocesano - Sacristia Santa Maria Degli Angeli,"museo, galleria e/o raccolta",Perfugas,"Piazza Domenico Alberto Azuni, s.n.c.",40.829042914,8.886449611,4.0,+39 079 6393099// +39 3497777103// +39 3459388019
Sardegna,Quadreria Spano,"museo, galleria e/o raccolta",Ploaghe,"Piazza San Pietro, s.n.c.",40.66641212,8.749052846,2.5,+39 3493672110
Sardegna,Città Romana e Parco Archeologico di Turris Libisonis,area o parco archeologico,Porto Torres,"Via Ponte Romano, 99",40.837336592,8.396267448,4.0,+39 079 514433
Sardegna,Castello della Fava,monumento o complesso monumentale,Posada,"Via Eleonora d'Arborea, s.n.c.",40.637988567,9.723759427,2.5,+39 3474801421
Sardegna,Museo del Cavallo di Pozzomaggiore,"museo, galleria e/o raccolta",Pozzomaggiore,"Piazza Convento, 39",40.396742287,8.660599079,2.0,+39 3408070619// +39 3283831764// +39 079 801969
Sardegna,Museo Unico Regionale dell'Arte Tessile Sarda,"museo, galleria e/o raccolta",Samugheo,"Via Bologna, s.n.c.",39.955086653,8.946882901,2.5,+39 0783 631052
Sardegna,Museo della Civiltà del Mare,"museo, galleria e/o raccolta",San Teodoro,"Via Niuloni, 1",40.779648608,9.674205849,2.0,+39 0784 866180// +39 3477256278
Sardegna,Castello Giudicale Eleonora d'Arborea Museo del Risorgimento e Collezione di Ceroplastiche,"museo, galleria e/o raccolta",Sanluri,"Via Generale Nino Villa Santa, 1",39.563271179,8.897919344,6.0,+39 070 9307184// +39 3939916135
Sardegna,Museo del Convento dei Cappuccini,"museo, galleria e/o raccolta",Sanluri,"Via San Rocco, 6",39.56592009,8.897787382,3.0,+39 070 3293920
Sardegna,Area archeologica di Pani Loriga,area o parco archeologico,Santadi,Località Pani Loriga,39.090787061,8.689304705,5.0,+39 0781 954203// +39 3488866797
Sardegna,Museo Civico Archeologico Santadi,"museo, galleria e/o raccolta",Santadi,"Via Umberto I, 17",39.093913366,8.717401801,5.0,+39 0781 954203// +39 3488866797
Sardegna,Museo Etnografico Sa Domu Antiga,"museo, galleria e/o raccolta",Santadi,"Via Mazzini, 45",39.09283503,8.715480956,5.0,+39 3488866797
Sardegna,Forte Sabaudo Forte Su Pisu,monumento o complesso monumentale,Sant'Antioco,"Via Castello, s.n.c.",39.070659707,8.450871014,2.5,+39 0781 800596// +39 3897962114// +39 0781 800596 FAX
Sardegna,Museo Archeologico Ferruccio Barreca,"museo, galleria e/o raccolta",Sant'Antioco,"Via Sabatino Moscati, 1",39.075786259,8.45175417,6.0,+39 0781 82105// +39 3897962114// +39 0781 800596 FAX
Sardegna,Museo Etnografico Su Magasinu e Su Binu,"museo, galleria e/o raccolta",Sant'Antioco,"Via Necropoli, 24d",39.07108281,8.449827376,3.0,+39 3890505107// +39 0781 800596// +39 3897962114
Sardegna,Necropoli De Is Pirixeddus,area o parco archeologico,Sant'Antioco,"Via Castello, s.n.c.",39.071735192,8.451583326,5.0,+39 0781 82105// +39 370 1592448// +39 0781 80301// +39 0781 800596// +39 3897962114
Sardegna,Museo della Tecnologia Contadina - Maestro Francesco Salis,"museo, galleria e/o raccolta",Santu Lussurgiu,"Via Deodato Meloni, 1",40.141712257,8.652152996,5.0,+39 3407706673// +39 3496868600
Sardegna,Area archeologica di Santa Anastasia,area o parco archeologico,Sardara,"Vico Eleonora D'Arborea, 10",39.616787422,8.820006709,5.0,+39 070 9386183// +39 070 9386011
Sardegna,Civico Museo Archeologico Villa Abbas,"museo, galleria e/o raccolta",Sardara,"Piazza della Libertà, 7",39.615917835,8.821982813,5.0,+39 070 9386183// +39 070 9386011
Sardegna,Museo della Città - Palazzo di Città,"museo, galleria e/o raccolta",Sassari,"Corso Vittorio Emanuele II, 35",40.728013263,8.559924444,4.0,+ 39 079 2008072// + 39 079 231777 FAX// +39 079 2015122// +39 3314377156
Sardegna,Museo Diocesano di Sassari,"museo, galleria e/o raccolta",Sassari,"Piazza del Duomo, s.n.c.",40.72671167,8.558778392,2.0,+39 079 232067// +39 3472174128
Sardegna,Museo Domu De Janas La Rocca,"museo, galleria e/o raccolta",Sedini,"Via Nazionale, 35",40.848449262,8.818156545,8.0,+39 079 589215// +39 3498440436// +39 079 588581
Sardegna,Museo Sa Domu Nosta,"museo, galleria e/o raccolta",Senorbì,"Via Scaledda, 1",39.533760629,9.131838072,3.0,+39 070 9809071
Sardegna,Area archeologica Santa Vittoria Serri,area o parco archeologico,Serri,Strada Comunale Santa Vittoria,39.712685069,9.105169859,5.0,+39 3460669068
Sardegna,Palazzina Liberty - Museo della civiltà contadina,"museo, galleria e/o raccolta",Seui,"Via Roma, 241",39.839742197,9.322788644,5.0,+39 0782 539002
Sardegna,Museo delle Tradizioni Agroalimentari della Sardegna - Casa Steri,"museo, galleria e/o raccolta",Siddi,"Via Roma, 2",39.671648076,8.88878404,5.0,+39 3496304621
Sardegna,Museo Ornitologico della Sardegna,"museo, galleria e/o raccolta",Siddi,"Piazza Leonardo da Vinci, s.n.c.",39.671812206,8.888468968,2.0,+39 070 939888// +39 3475116787
Sardegna,Parco Naturalistico Archeologico Sa Fogaia,area o parco archeologico,Siddi,Giara di Siddi,39.662977791,8.878641843,2.0,+39 070 939888// +39 3475116787
Sardegna,Castello di Acquafredda,monumento o complesso monumentale,Siliqua,SS 293,39.261990735,8.820316702,6.0,+39 3491564023// +39 3497428014
Sardegna,Museo Civico Archeologico e Pinacoteca,"museo, galleria e/o raccolta",Sinnai,"Via P. Colletta, 20",39.302004158,9.202034006,2.0,+39 3406671868
Sardegna,Casa Museo  della Tecnologia Contadina Tiu Virgiliu,"museo, galleria e/o raccolta",Suni,"Via Regina Margherita, 7",40.279113278,8.548135445,5.0,+39 3288789521
Sardegna,Necropoli Chirisconis,area o parco archeologico,Suni,SS 292 bis,40.331145705,8.593086605,2.5,+39 3288789521
Sardegna,Nuraghe Nuraddeo,area o parco archeologico,Suni,SS 292 bis,40.324299183,8.57997115,2.5,+39 3288789521
Sardegna,Nuraghe Seneghe,area o parco archeologico,Suni,"Via Bosa, s.n.c.",40.279216862,8.539274442,2.5,+39 3288789521
Sardegna,Parco Archeologico,area o parco archeologico,Suni,"Vico B Bosa, 3",40.279400365,8.547827681,5.0,+39 3288789521
Sardegna,Museo Diocesano San Pietro Apostolo,"museo, galleria e/o raccolta",Tempio Pausania,"Via Villa Marina, 1",40.902965239,9.104283154,4.0,+39 079 6393099// +39 3459388019
Sardegna,Nuraghe Majori,area o parco archeologico,Tempio Pausania,SS 133,40.919447695,9.096851107,3.5,+39 3472995933// +39 3203060634
Sardegna,Area di S'Urbale,area o parco archeologico,Teti,"Via Roma, 7",40.085631954,9.109598278,2.5,+39 0784 68120// +39 0784 9364481
Sardegna,Museo Archeologico Comprensoriale,"museo, galleria e/o raccolta",Teti,"Via Roma, 7",40.097035648,9.121007812,2.5,+39 0784 68120
Sardegna,Santuario Nuragico di Abini,area o parco archeologico,Teti,"Via Roma, 7",40.145460165,9.092964759,2.5,+39 0784 68120
Sardegna,Complesso Nuragico di Santu Antine,area o parco archeologico,Torralba,SP 21,40.486504236,8.769904623,8.0,+39 079 847481// +39 3664353484// +39 3479138479
Sardegna,Complesso Monumentale Comprendente La Cattedrale di S. Maria di Monserrato e Borgo Medievale,monumento o complesso monumentale,Tratalias,"Piazza Chiesa, s.n.c.",39.097975559,8.572070511,2.5,+39 0781 688046// +39 0781 697023
Sardegna,Museo dell'olivo e dell'olio e Museo degli strumenti musicali - Villa Asquer,"museo, galleria e/o raccolta",Tuili,"Piazza San Pietro, s.n.c.",39.715234422,8.958843543,4.0,+39 070 0950283// +39 3479446052
Sardegna,Museo Stazione dell'Arte,"museo, galleria e/o raccolta",Ulassai,SP 11,39.803663782,9.511429619,6.0,+39 0782 787055
Sardegna,Museo Archeologico di Viddalba,"museo, galleria e/o raccolta",Viddalba,"Via Giovanni Maria Angioy, 5",40.916394607,8.894386826,3.0,+39 3273834604
Sardegna,Museo Civico Archeologico Villa Leni,"museo, galleria e/o raccolta",Villacidro,"Piazza Zampillo, 1",39.456778972,8.732123755,2.0,+39 070 93442215
Sardegna,Area archeologica Troculu,area o parco archeologico,Villagrande Strisaili,"SS 389 var. Buddusò Correboi, località Genna Troculu",39.989221335,9.408174082,3.0,+39 0782 32704// +39 3939020917// +39 0782 319163 FAX
Sardegna,Area di Sa Carcaredda,area o parco archeologico,Villagrande Strisaili,SS 389 var. Buddusò Correboi,39.99218819,9.427436893,3.0,+39 0782 32704// +39 3939020917// +39 0782 319163 FAX
Sardegna,S'Arcu 'e Is Forros,area o parco archeologico,Villagrande Strisaili,"SS 389 var. Buddusò Correboi, località Arcu e Is Forros",40.002023634,9.400515256,3.0,+39 0782 32704// +39 3939020917// +39 0782 319163 FAX
Sardegna,Area di Pottu Codinu,area o parco archeologico,Villanova Monteleone,SS 292,40.487202751,8.519114182,2.0,+39 3381586752// +39 3381809055// +39 3668412916// +39 079 960607
Sardegna,Museo Etnografico Sa Domo Manna,"museo, galleria e/o raccolta",Villanova Monteleone,"Via Papa Giovanni XXIII, 8",40.503002947,8.471421837,2.0,+39 079 960268
Sardegna,Villaggio Nuragico Nuraghe Appiu,area o parco archeologico,Villanova Monteleone,"Strada consortile Monte Cuccu, Baddu 'e Pessighes",40.445358988,8.420052163,2.5,+39 3381586752// +39 3381809055// +39 3668412916
Sardegna,Parco e Museo Genna Maria,area o parco archeologico,Villanovaforru,"Piazza Costituzione, 4/ Località Monte Genna Maria",39.632759931,8.868341374,4.0,+39 070 9300050// +39 070 9300048
Sardegna,Area archeologica Su Mulinu,area o parco archeologico,Villanovafranca,Strada Comunale Cuccuru Meu,39.634364269,8.994152835,3.0,+39 070 9367458
Sardegna,Civico Museo Archeologico Su Mulinu,"museo, galleria e/o raccolta",Villanovafranca,"Piazza Risorgimento, 6",39.645751062,9.001293255,3.0,+39 070 9367458
Sardegna,Parco Archeologico Montessu,area o parco archeologico,Villaperuccio,"SP 80, Località Montessu",39.133402932,8.667470024,5.0,+39 3407433521
Sardegna,Fortezza Vecchia,monumento o complesso monumentale,Villasimius,Località Torre Vecchia,39.116166082,9.503739414,1.0,+39 070 7930290// +39 070 7930232
Sardegna,Museo Archeologico di Villasimius,"museo, galleria e/o raccolta",Villasimius,"Via Aventino Frau, 5",39.14374111,9.518478568,3.0,+39 070 7930290
Sardegna,Area archeologica Nuraghe Losa,area o parco archeologico,Abbasanta,SS 131 Carlo Felice,40.116863973,8.790317545,5.0,+39 0785 52302// +39 3319128790
Sardegna,Necropoli di Li Muri di Arzachena,area o parco archeologico,Arzachena,SS 427,41.07012655,9.321715088,4.0,+39 3457200094
Sardegna,Museo Rossoblù,"museo, galleria e/o raccolta",Quartu Sant'Elena,"Via Armando Diaz, 77",39.243800843,9.184345107,5.0,+39 3476413293
Sardegna,Tempio di Malchittu,area o parco archeologico,Arzachena,Località Malchittu,41.0790339,9.4105799,4.0,+39 3457200094
Sardegna,Area archeologica Su Nuraxi,area o parco archeologico,Barumini,"Viale Su Nuraxi, s.n.c./ SP 44 km 0,55",39.705902323,8.990714021,14.0,+39 070 9368128// +39 3771805443// +39 3771716166
Sardegna,Museo Archeologico Nazionale,"museo, galleria e/o raccolta",Cagliari,"Piazza Arsenale, 1",39.222394763,9.116764118,7.0,+39 070 60518245// +39 070 60518248// +39 070 655911
Sardegna,Pinacoteca nazionale di Cagliari,"museo, galleria e/o raccolta",Cagliari,"Piazza Arsenale, 1",39.22294634,9.117273328,4.0,+39 070 662496// +39 070 655911
Sardegna,Centro di educazione ambientale - Laguna di Nora,"museo, galleria e/o raccolta",Pula,"Viale Nora, s.n.c. - Laguna di Nora",38.98909642,9.012144276,8.0,+39 070 9209544// +39 3331864668
Sardegna,Spazio San Pancrazio,monumento o complesso monumentale,Cagliari,"Piazza Arsenale, 1",39.22165829,9.116773169,4.0,+39 070 60518245// +39 070 60518248// +39 070 655911
Sardegna,Museo dell'archeologia e del territorio - MATER,"museo, galleria e/o raccolta",Mamoiada,"Via G. Manno, 18",40.212869227,9.283694547,4.0,+39 0784 569018
Sardegna,Museo della Valle dei Nuraghi del Logudoro-Meilogu,"museo, galleria e/o raccolta",Torralba,"Via Carlo Felice, 151",40.513930458,8.765953759,6.0,+39 079 847481// +39 3664353484// +39 3479138479
Sardegna,Museo Antoine De Saint-Exupéry - MASE,"museo, galleria e/o raccolta",Alghero,"Via Porto Conte, s.n.c., Torre di Porto Conte",40.593630073,8.204315564,5.0,+39 3295658813
Sardegna,META - Museo etnografico di Abbasanta,"museo, galleria e/o raccolta",Abbasanta,"Via S. Caterina, 25",40.124741737,8.821898921,2.5,+39 0785 52302// +39 3319128790
Sardegna,Compendio Garibaldino di Caprera,"museo, galleria e/o raccolta",La Maddalena,Isola di Caprera,41.216430485,9.461617533,7.0,+39 0789 727162// +39 0789 726015// +39 3357505401
Sardegna,Memoriale Giuseppe Garibaldi,"museo, galleria e/o raccolta",La Maddalena,Forte Arbuticci - Isola di Caprera,41.229399188,9.471098627,6.0,+39 0789 727162// +39 0789 726015
Sardegna,MAGMMA - Museo d’arte grafica mediterraneo Marchionni,"museo, galleria e/o raccolta",Villacidro,"Via Vittorio Emanuele, 15",39.457970751,8.733165303,5.0,+39 3403473320
Sardegna,Museo Casa Deriu Tresnuraghes,"museo, galleria e/o raccolta",Tresnuraghes,"Via San Giorgio, 16",40.251247378,8.518426127,4.0,+39 0785 35509
Sardegna,CIMA - Civico Museo di Allai,"museo, galleria e/o raccolta",Allai,"Via Parrocchia, 15",39.956759438,8.864133596,3.0,+39 3288789521
Sardegna,Antiquarium Turritano e zona archeologica,"museo, galleria e/o raccolta",Porto Torres,"Via Ponte Romano, 99",40.838353453,8.397059483,4.0,+39 079 514433
Sardegna,Carcere baronale spagnolo,"museo, galleria e/o raccolta",Seui,"Via Sassari, 47",39.840437717,9.320536148,5.0,+39 0782 539002
Sardegna,Casa Farci,"museo, galleria e/o raccolta",Seui,"Via Roma, 166",39.839701221,9.322548836,5.0,+39 0782 539002
Sardegna,Area archeologica di Nora,area o parco archeologico,Pula,"Viale Nora, s.n.c.",38.984184856,9.015866942,6.0,+39 070 9209366// +39 070 9209138
Sardegna,Galleria Civica,"museo, galleria e/o raccolta",Seui,"Via della Sapienza, 38",39.839596479,9.324165586,5.0,+39 0782 539002
Sardegna,Altare prenuragico di Monte d'Accoddi,area o parco archeologico,Sassari,Strada vicinale Monte d'Accoddi,40.790712457,8.448955222,4.0,+39 3348074449// +39 079 2008072// +39 079 514433
Sardegna,Museo nazionale archeologico ed etnografico Giovanni Antonio Sanna,"museo, galleria e/o raccolta",Sassari,"Via Roma, 64",40.722540468,8.567672176,3.0,+39 079 272203
Sardegna,Pinacoteca nazionale di Sassari,"museo, galleria e/o raccolta",Sassari,"Via Santa Caterina, 4",40.72719247,8.559657362,4.0,+39 079 231560
Sardegna,Area archeologica di Tharros,area o parco archeologico,Cabras,"SP 6, San Giovanni di Sinis",39.873435968,8.440882669,6.5,+39 0783 370019
Sardegna,S'Omu de sa maja,"museo, galleria e/o raccolta",Seui,"Via della Sapienza, s.n.c.",39.839926141,9.323699622,5.0,+39 0782 539002
Sardegna,Cripta di Santa Restituta,area o parco archeologico,Cagliari,"Via Sant'Efisio, 14",39.21894535,9.112870527,2.0,+39 3662562826
Sardegna,Carcere Spagnolo - Sa Bovida,"museo, galleria e/o raccolta",Aritzo,"Via G. Marconi, s.n.c.",39.956306057,9.196234301,2.0,+39 3898731853// +39 0784 627200
Sardegna,Parco-Museo S'Abba Frisca,"museo, galleria e/o raccolta",Dorgali,SS 125 Località Vallata di Littu,40.307278363,9.629401772,8.5,+39 3337655405// +39 3382380089// +39 3391464112// +39 3356569072
Sardegna,Area di S'Ortali e Su Monti,area o parco archeologico,Tortolì,Località S'Ortali e Su Monti,39.913263435,9.667972502,3.0,+39 0782 32704
Sardegna,Cripta e Chiesa di San Lussorio,monumento o complesso monumentale,Fordongianus,SS 388,39.989712888,8.79819782,2.5,+39 0783 60157
Sardegna,Museo diocesano Arborense,"museo, galleria e/o raccolta",Oristano,"Piazza Duomo, 1",39.902720678,8.590039922,4.0,+39 3425887847
Sardegna,Nuraghe Armungia,area o parco archeologico,Armungia,"Piazza Municipio, s.n.c.",39.522375799,9.383929958,1.5,+39 070 9589011// +39 070 958076 FAX
Sardegna,Museo Archeologico della Città,"museo, galleria e/o raccolta",Alghero,"Via Carlo Alberto, 72",40.557353096,8.314130211,5.0,+39 079 979054// +39 079 980729
Sardegna,Museo Laboratorio dell'Età Nuragica - LABENUR,"museo, galleria e/o raccolta",Arzachena,"SP 115 - Stazione Ferroviaria, km 207,94",41.081626483,9.372607576,5.0,+39 3408209749// +39 3337389973
Sardegna,Parco urbano di Cannas di Sotto,area o parco archeologico,Carbonia,"Corso Iglesias, s.n.c./ Via Fertilia, s.n.c.",39.163079295,8.532182936,5.0,+39 0781 1867304// +39 3458886058
Sardegna,Sito archeologico nuragico Lu Brandali,area o parco archeologico,Santa Teresa di Gallura,"SP 90 - Via Capotesta, s.n.c.",41.233539787,9.175377523,5.0,+39 3498347698// +39 3477412166// +39 3920547979
Sardegna,Torre di Longosardo,monumento o complesso monumentale,Santa Teresa di Gallura,"Via Bechi, s.n.c.",41.24552309,9.192536992,3.0,+39 3498347698// +39 3477412166// +39 3920547979
Sardegna,Domus de janas di Montalè,area o parco archeologico,Sassari,"Via Medaglie d’Oro, s.n.c.",40.748256902,8.511389012,4.0,+39 079 2008072
Sardegna,Palazzo Ducale,monumento o complesso monumentale,Sassari,"Piazza del Comune, 1",40.726604737,8.559391856,4.0,+39 079 2008072
Sardegna,Museo multimediale Torre di San Vittorio,"museo, galleria e/o raccolta",Carloforte,"Viale Osservatorio Astronomico, s.n.c.",39.13715209,8.311867795,5.0,+39 0781 8589200// +39 0781 8589207// +39 3331816535
Sardegna,Museo Geo-Mineralogico Naturalistico,"museo, galleria e/o raccolta",La Maddalena,"Borgo di Stagnali, Isola di Caprera",41.198126481,9.453760768,2.5,+39 3385940560
Sardegna,MIF - Museo dell'imprenditoria femminile Donna Francesca Sanna Sulis,"museo, galleria e/o raccolta",Muravera,"Via Guglielmo Marconi, 99",39.419568842,9.57724035,1.5,+39 3939023141
Sardegna,Museo del Sughero,"museo, galleria e/o raccolta",Calangianus,"Via San Francesco, 3",40.922316239,9.191277074,3.0,+39 079 662034// +39 3463693859
Sardegna,Ecomuseo delle Acque di Barbagia,"museo, galleria e/o raccolta",Sadali,"Via Grazia Deledda, s.n.c. - Infopoint",39.814577405,9.272619608,10.0,+39 3206253278
Sardegna,Museo Storico della Cava di Cala Francese,"museo, galleria e/o raccolta",La Maddalena,"Cala Francese, Isola di La Maddalena",41.220710522,9.378757671,5.0,+39 3385940560
Sardegna,Casa Devilla,"museo, galleria e/o raccolta",Aritzo,"Via Caserma, 1",39.957527153,9.196759126,2.0,+39 3898731853// +39 0784 627200
Sardegna,Museo Mura,"museo, galleria e/o raccolta",Aritzo,"Pratz'e Iscola, 11",39.955466412,9.197740031,2.0,+39 3898731853// +39 0784 627200
Sardegna,Giardino Sonoro - P.S. Museum,"museo, galleria e/o raccolta",San Sperate,"Via oriana Fallaci, s.n.c.",39.357057661,8.998463167,5.0,+39 3245875094
Sardegna,EMA - Ecomuseo del Mare e dell’Acqua,monumento o complesso monumentale,Sassari,"Viale Adua, s.n.c.",40.718685414,8.578112772,8.0,+39 351 9359980
Sardegna,Archivio Digitale e installazione museale Rixe per la cultura Tabarchina,"museo, galleria e/o raccolta",Calasetta,"Via Umberto I, 61",39.109279973,8.371082433,3.0,+39 3473626183// +39 3288836251// +39 078 1840717
Sardegna,Museo Civico Pedru Serra,"museo, galleria e/o raccolta",Sagama,"Via Regina Elena, 27",40.261402113,8.578036968,3.0,+39 3288789521
Sardegna,Centro di Documentazione e Studio sulla Sartiglia,"museo, galleria e/o raccolta",Oristano,"Via Eleonora, 15",39.903396999,8.591380843,2.0,+39 0783303159// +39 0783302481
Sicilia,Museo del Satiro (Chiesa di Sant'Egidio),"museo, galleria e/o raccolta",Mazara del Vallo,"piazza plebiscito, Mazara del Vallo, Italia",37.6516467,12.5882062,6.0,0923933917
Sicilia,Museo regionale casa-museo Antonino Uccello a Palazzolo Acreide,"museo, galleria e/o raccolta",Palazzolo Acreide,"via machiavelli, Palazzolo Acreide, Italia",37.0627777,14.9022281,2.0,0931 881499
Sicilia,Area archeologica Parco Forza,area o parco archeologico,Ispica,"Ispica, Italia",36.7858319,14.907637,2.0,0932952608
Sicilia,Villa Romana di San Biagio,area o parco archeologico,Terme Vigliatore,"via nazionale, Terme Vigliatore, Italia",38.1258908,15.1359684,0.0,0909740488
Sicilia,Antiquarium iconografico e Mura Timoleontee di Capo Soprano,area o parco archeologico,Gela,"viale indipendenza, Gela, Italia",37.0723367,14.2289295,4.0,093391226 - 0933930975
Sicilia,Chiostro Santa Maria la Nuova (Duomo),monumento o complesso monumentale,Monreale,"piazza guglielmo il buono, Monreale, Italia",38.117076425936666,13.344571841817114,6.0,0917071425 - 0917071411 -  0916404403
Sicilia,Palazzo Ajutamicristo,monumento o complesso monumentale,Palermo,"via garibaldi, Palermo, Italia",38.1135383,13.367108349385964,0.0,0917071425 - 3357957161
Sicilia,Museo delle Tradizioni silvo-pastorali di Mistretta,"museo, galleria e/o raccolta",Mistretta,"via libertà, Mistretta, Italia",37.9269797,14.3600042,0.0,0921381696 (temporaneamente disattivato)
Sicilia,Villino Florio e Giardino,area o parco archeologico,Palermo,"viale regina margherita, Palermo, Italia",38.1202481,13.3431928,0.0,0917025471 - 0917071425
Sicilia,Chiostro di San Giovanni degli Eremiti,monumento o complesso monumentale,Palermo,"via dei benedettini, Palermo, Italia",38.1084917,13.3558602,6.0,0917071425 - 0916515019  - 0917071411
Sicilia,Castello di Bauso,monumento o complesso monumentale,Villafranca Tirrena,"piazza castello, Villafranca Tirrena, Italia",38.23188685,15.435171229694838,0.0,090334948
Sicilia,Bagni di Cefalà Diana,area o parco archeologico,Cefala' Diana,"Cefala' Diana, Italia",37.9151751,13.463549,0.0,0917071425 - Rangers 0918291551
Sicilia,Area archeologica di Monte Sant'Angelo e Castel Sant'Angelo,area o parco archeologico,Licata,"Licata, Italia",37.1016361,13.9376147,0.0,0922772602
Sicilia,Area archeologica di Licata,area o parco archeologico,Licata,"Licata, Italia",37.1016361,13.9376147,0.0,0922772602
Sicilia,Area archeologica Teatro antico e Antiquarium di Tindari,area o parco archeologico,Patti,"via del teatro greco, Patti, Italia",38.13854384872103,14.96543751112948,6.0,0941369023
Sicilia,Museo regionale di Kamarina,"museo, galleria e/o raccolta",Ragusa,"Ragusa, Italia",36.9219828,14.7213455,4.0,0932 826004
Sicilia,Zona Archeologica,"museo, galleria e/o raccolta",Ravanusa,"Ravanusa, Italia",37.2679139,13.9732545,0.0,Centralino Soprintendenza BB.CC.AA. di Agrigento 0922552611
Sicilia,Biblioteca - Museo regionale Luigi Pirandello di Agrigento,"museo, galleria e/o raccolta",Agrigento,"Agrigento, Italia",37.3122991,13.57465,4.0,0922511826 e-mail: polomuseale.ag.uo3@regione.sicilia.it
Sicilia,Terme della Rotonda,area o parco archeologico,Catania,"via della mecca, Catania, Italia",37.5039663,15.0831271,0.0,095/7150508 - polomuseale.ct@regione.sicilia.it  poloregionalect.urp@regione.sicilia.it
Sicilia,Antiquarium di Monte Adranone,"museo, galleria e/o raccolta",Sambuca di Sicilia,"Sambuca di Sicilia, Italia",37.6477395,13.1110313,6.0,0925946083
Sicilia,Terme Romane dell'Indirizzo,area o parco archeologico,Catania,"piazza currò, Catania, Italia",37.50094865,15.085990294446532,0.0,095/7150508- polomuseale.ct@regione.sicilia.it  poloregionalect.urp@regione.sicilia.it
Sicilia,Antiquarium di Monte Kronio - Stufe di S. Calogero,"museo, galleria e/o raccolta",Sciacca,"Sciacca, Italia",37.5064786,13.0823323,4.0,092528989
Sicilia,Museo archeologico regionale Bernabo' Brea a Lipari,"museo, galleria e/o raccolta",Lipari,"via del castello, Lipari, Italia",38.46720040958127,14.95646871892736,6.0,0909880174/594 fax 0909880175
Sicilia,Area archeologica di Morgantina,area o parco archeologico,Aidone,"Aidone, Italia",37.4154209,14.445276,6.0,093587955
Sicilia,"Museo archeologico ""Salvatore Lauricella""","museo, galleria e/o raccolta",Ravanusa,"corso della repubblica, Ravanusa, Italia",37.2679168,13.9750818,0.0,NON REGISTRATO
Sicilia,Valle dei Templi di Agrigento,area o parco archeologico,Agrigento,"via panoramica dei templi , Agrigento, Italia",37.2951817,13.6000995,10.0,NON REGISTRATO
Sicilia,Area archeologica di Akrai,area o parco archeologico,Palazzolo Acreide,"Palazzolo Acreide, Italia",37.061855,14.9041697,4.0,0931876602
Sicilia,Santa Maria dei Greci,monumento o complesso monumentale,Agrigento,"via santa maria dei greci, Agrigento, Italia",37.3129813,13.5781662,0.0,Centralino Soprintendenza BB.CC.AA. di Agrigento 0922552611
Sicilia,Museo regionale interdisciplinare di Enna,"museo, galleria e/o raccolta",Enna,"piazza mazzini, Enna, Italia",37.566621100000006,14.282717000593411,0.0,09355076304 - fax 09355076323
Sicilia,Area archeologica Halaesa Arconidea,area o parco archeologico,Tusa,"Tusa, Italia",37.983855,14.236065,0.0,NON REGISTRATO
Sicilia,Area archeologica Gibil Gabib,area o parco archeologico,Caltanissetta,"Caltanissetta, Italia",37.4899412,14.0631618,0.0,0934554964
Sicilia,Area archeologica Selinunte,area o parco archeologico,Castelvetrano,"via selinunte, Castelvetrano, Italia",37.6747521,12.7949883,6.0,092446277
Sicilia,Area archeologica e Antiquarium di Sabucina,area o parco archeologico,Caltanissetta,"Caltanissetta, Italia",37.4899412,14.0631618,0.0,0934554964
Sicilia,Area archeologica e Antiquarium di Solunto,area o parco archeologico,Santa Flavia,"via collegio romano, Santa Flavia, Italia",38.09191111161576,13.532400566616872,4.0,UFFICIO AMMINISTRATIVO 091905043 - AREA PARCO ARCHEOLOGICO 091909339
Sicilia,Museo archeologico regionale di Centuripe,"museo, galleria e/o raccolta",Centuripe,"via ss. crocifisso, Centuripe, Italia",37.62224712517353,14.741658426459338,0.0,093573079
Sicilia,Teatro Greco Romano di Taormina,area o parco archeologico,Taormina,"via del teatro greco, Taormina, Italia",37.852929121406525,15.290567555301688,10.0,Direzione 0942 628738 / Biglietteria Teatro 094223220 / Uffici Teatro 094224291
Sicilia,Castello medievale di Caccamo,area o parco archeologico,Caccamo,"via del castello, Caccamo, Italia",37.9319276,13.6605767,4.0,"Ufficio Turismo   Tel. 0918103207/221   turismo@comune.caccamo.pa.it

Biglietteria Castello   Tel. 091/8149252

castello@comune.caccamo.pa.it"
Sicilia,Convento della Magione,monumento o complesso monumentale,Palermo,"piazza magione, Palermo, Italia",38.1130081,13.3696503,0.0,0917071425  - 0917071411
Sicilia,Giardino di Villa Napoli e Piccola Cuba,monumento o complesso monumentale,Palermo,"via f. speciale, Palermo, Italia",38.1061861890964,13.33619745003384,0.0,3346001743 - 0917071425
Sicilia,Area archeologica monumentale di Castello a Mare,area o parco archeologico,Palermo,"via crispi, Palermo, Italia",38.1255189,13.36311,2.0,0917071317/411
Sicilia,Museo archeologico regionale della Badia,"museo, galleria e/o raccolta",Licata,"Licata, Italia",37.10329,13.94061,0.0,0922 772602
Sicilia,Area archeologica di Palike',area o parco archeologico,Mineo,"Mineo, Italia",37.2648752,14.6908487,0.0,3315771468
Sicilia,Castello della Favara a Maredolce,"museo, galleria e/o raccolta",Palermo,"via giafar, Palermo, Italia",38.0873113,13.4076963,0.0,0917071425 - 3357957161
Sicilia,Castello della Cuba e Necropoli Punica,area o parco archeologico,Palermo,"corso calatafimi, Palermo, Italia",38.1025407,13.3289924,2.0,0917071425 - 091590299
Sicilia,Museo archeologico regionale di Marianopoli,"museo, galleria e/o raccolta",Marianopoli,"viale regione siciliana, Marianopoli, Italia",37.59910338848314,13.913222539950656,0.0,0934554964
Sicilia,Museo regionale Palazzo Mirto,"museo, galleria e/o raccolta",Palermo,"via merlo, Palermo, Italia",38.1165756,13.3674993,6.0,"tel e fax 0916164751  tel 0916167541
e-mail: polomuseale.pa.uo4@regione.sicilia.it
https://www.facebook.com/pages/CASA-MUSEO-Palazzo-MIRTO/265051623703706"
Sicilia,Oratorio dei Bianchi,"museo, galleria e/o raccolta",Palermo,"piazzetta dei bianchi, Palermo, Italia",38.1159449,13.3714174,8.0,"Telefono 0916173080 fax 0916165305 Mail:polomuseale.pa@regione.sicilia.it
Urp 0916230068"
Sicilia,Casina Cinese,monumento o complesso monumentale,Palermo,"via duca degli abruzzi, Palermo, Italia",38.1662163,13.3302067,0.0,091 7071317/411
Sicilia,Area archeologica e Antiquarium di Megara Hyblaea,area o parco archeologico,Augusta,"Augusta, Italia",37.2369363,15.2196575,4.0,09314508211
Sicilia,Area archeologica dell'Antica Cossyra,area o parco archeologico,Pantelleria,"Pantelleria, Italia",36.8314576,11.9450395,0.0,0923808111
Sicilia,Museo archeologico regionale Paolo Orsi di Siracusa,"museo, galleria e/o raccolta",Siracusa,"viale teocrito, Siracusa, Italia",37.0754123,15.2857873,8.0,"0931489511 fax 0931489532

APERTURA STRAORDINARIA lunedì 24 Aprile e 1 maggio ore 9-14"
Sicilia,Antiquarium di Milazzo,area o parco archeologico,Milazzo,"via impallomeni, Milazzo, Italia",38.22606367442193,15.2412067571643,0.0,0909223471
Sicilia,Area archeologica Agora',area o parco archeologico,Ragusa,"Ragusa, Italia",36.9219828,14.7213455,4.0,0932 826004
Sicilia,Area archeologica di Leontinoi,area o parco archeologico,Carlentini,"Carlentini, Italia",37.2758806,15.0149783,0.0,0957832962 (presso Museo)
Sicilia,Castello di Montalbano Elicona,monumento o complesso monumentale,Montalbano Elicona,"via castello, Montalbano Elicona, Italia",38.0236696,15.0103973,3.0,"09036746433, URP della Soprintendenza di Messina"
Sicilia,Castello della Zisa,area o parco archeologico,Palermo,"piazza zisa, Palermo, Italia",38.1157823,13.341109,6.0,0916520269 - 0917071411
Sicilia,Anfiteatro Romano di Catania,area o parco archeologico,Catania,"piazza stesicoro, Catania, Italia",37.5074251,15.085904747430828,0.0,095/7150508 polomuseale.ct@regione.sicilia.it  poloregionalect.urp.@regione.sicilia.it
Sicilia,Grotta del Genovese - Levanzo,area o parco archeologico,Favignana,"Favignana, Italia",37.9314018,12.3274291,0.0,0923808111
Sicilia,Museo archeologico regionale Lilibeo Marsala - Baglio Anselmi,"museo, galleria e/o raccolta",Marsala,"lungomare boeo, Marsala, Italia",37.8020884,12.4248873,4.0,0923 952535 - per le visite su prenotazione rivolgersi al personale o telefonare allo 0923 952535
Sicilia,Area archeologica Cave di Cusa Vincenzo Tusa,area o parco archeologico,Campobello di Mazara,"Campobello di Mazara, Italia",37.635838,12.744338,2.0,092446277
Sicilia,Museo regionale interdisciplinare di Ragusa,"museo, galleria e/o raccolta",Ragusa,"via natalelli, Ragusa, Italia",36.923601,14.7261401,0.0,0932622963 - fax 0932622963
Sicilia,Museo archeologico regionale di Lentini,"museo, galleria e/o raccolta",Lentini,"via museo, Lentini, Italia",37.28850456039487,15.001932180417898,0.0,0957832962
Sicilia,Museo regionale d'Arte moderna e contemporanea di Palermo,"museo, galleria e/o raccolta",Palermo,"corso vittorio emanuele, Palermo, Italia",38.1124194,13.3533823,6.0,091320532 fax 0916090166
Sicilia,Museo regionale Agostino Pepoli di Trapani - Museo interdisciplinare,"museo, galleria e/o raccolta",Trapani,"via conte pepoli, Trapani, Italia",38.018939729546375,12.54247101668273,6.0,0923553269 - fax 0923535444
Sicilia,Museo regionale della Ceramica di Caltagirone,"museo, galleria e/o raccolta",Caltagirone,"via roma, Caltagirone, Italia",37.232083,14.5197832,4.0,093358418 - 093358423 fax 093326972
Sicilia,"Area archeologica della Neapolis, Orecchio di Dionisio e Teatro Greco",area o parco archeologico,Siracusa,"via del teatro greco, Siracusa, Italia",37.0856,15.28407,10.0,093166206
Sicilia,Area archeologica e Villa Romana del Tellaro,area o parco archeologico,Noto,"Noto, Italia",36.8908864,15.0706454,0.0,0931573883
Sicilia,Ipogeo Romano,area o parco archeologico,Catania,"via g. sanfilippo, Catania, Italia",37.51366583510854,15.08021203994833,0.0,095/7150508 polomuseale.ct@regione.sicilia.it - poloregionalect.urp@regione.sicilia.it
Sicilia,Area archeologica Segesta,area o parco archeologico,Calatafimi Segesta,"Calatafimi Segesta, Italia",37.9136378,12.8618933,6.0,0924952356
Sicilia,Museo regionale di Adrano,"museo, galleria e/o raccolta",Adrano,"piazza umberto i, Adrano, Italia",37.66048,14.83759,2.0,TEL. 0957691622 - 0957602608
Sicilia,Area archeologica Caucana,area o parco archeologico,Santa Croce Camerina,"via delle anticaglie, Santa Croce Camerina, Italia",36.78818347420917,14.506530958461992,0.0,NON REGISTRATO
Sicilia,Museo archeologico regionale di Agrigento,"museo, galleria e/o raccolta",Agrigento,"Agrigento, Italia",37.3122991,13.57465,8.0,"0922401565 - fax 092220014
e-mail: polomuseale.ag@regione.sicilia.it"
Sicilia,Ex Stabilimento Florio di Favignana,monumento o complesso monumentale,Favignana,"Favignana, Italia",37.9314018,12.3274291,6.0,NON REGISTRATO
Sicilia,Galleria regionale di Palazzo Bellomo di Siracusa – Museo interdisciplinare,"museo, galleria e/o raccolta",Siracusa,"via capodieci, Siracusa, Italia",37.0575729,15.2941517,8.0,"093169511, fax 093169529"
Sicilia,Museo regionale interdisciplinare di Messina,"museo, galleria e/o raccolta",Messina,"viale della libertà, Messina, Italia",38.2174767,15.5656693,8.0,090361292/93
Sicilia,Zona Archeologica,area o parco archeologico,Naro,"Naro, Italia",37.29622,13.7915674,0.0,Centralino Soprintendenza BB.CC.AA. di Agrigento 0922552611
Sicilia,Area archeologica Vassallaggi,area o parco archeologico,San Cataldo,"San Cataldo, Italia",37.4914458,13.9935156,0.0,0934554964
Sicilia,Villa Romana di Patti,area o parco archeologico,Patti,"via giovanni xxiii, Patti, Italia",38.1470589,14.9808362,4.0,0941361593
Sicilia,Galleria regionale della Sicilia di Palazzo Abatellis di Palermo – Museo interdisciplinare,"museo, galleria e/o raccolta",Palermo,"via alloro, Palermo, Italia",38.1160926,13.3694054,8.0,"Telefono 0916230011, fax 0916165305, urp 0916230068, Biglietteria 0916230047
e-mail:polomuseale.pa@regione.sicilia.it
https://www.facebook.com/GalleriaRegionaledellaSiciliadiPalazzoAbatellis?fref=ts"
Sicilia,Teatro Romano e Odeon di Catania,area o parco archeologico,Catania,"via vittorio emanuele, Catania, Italia",37.50293595,15.082842766671142,6.0,095/7150508 fax 095/311004- polomuseale.ct@regione.sicilia.it  poloregionalect.urp.@regione.sicilia.it
Sicilia,Museo archeologico di Palazzo Cappellani,"museo, galleria e/o raccolta",Palazzolo Acreide,"via gaetano italia, Palazzolo Acreide, Italia",37.0618771,14.9056396,0.0,0931875575
Sicilia,Area archeologica Bagni Greci di Gela,area o parco archeologico,Gela,"via europa, Gela, Italia",37.0742041,14.2317363,0.0,0933 912626
Sicilia,Chiesa di San Francesco Borgia,monumento o complesso monumentale,Catania,"via crociferi, Catania, Italia",37.5032901,15.0847567,0.0,095310762
Sicilia,Area archeologica e Antiquarium di Himera,area o parco archeologico,Termini Imerese,"Termini Imerese, Italia",37.983651,13.695554,4.0,"Tel. 0918140128 e 0918140906, fax 0918140906 indirizzo email poloarcheologico.pa.uo5@regione.sicilia.it"
Sicilia,Area archeologica di Capo d'Orlando,area o parco archeologico,Capo d'Orlando,"Capo d'Orlando, Italia",38.1595733,14.7450733,0.0,0941955401
Sicilia,Area archeologica di Sant'Angelo Muxaro,area o parco archeologico,Sant'Angelo Muxaro,"Sant'Angelo Muxaro, Italia",37.4790152,13.5443155,0.0,0922 919806
Sicilia,"Zona Archeologica ""Vito Soldano""",area o parco archeologico,Canicatti',"Canicatti', Italia",37.358942,13.850364,0.0,Centralino Soprintendenza BB.CC.AA. di Agrigento 0922552611
Sicilia,Area archeologica della Villa Romana del Casale a Piazza Armerina,area o parco archeologico,Piazza Armerina,"Piazza Armerina, Italia",37.385946,14.367174,10.0,0935680036
Sicilia,Museo archeologico regionale e Area archeologica di Naxos,"museo, galleria e/o raccolta",Giardini-Naxos,"lungomare schisò giardini naxos, Giardini-Naxos, Italia",37.8257934,15.2692452,4.0,Direzione 0942628738 Museo e area archeologica 094251001 - Fax 0942571813
Sicilia,Casa Museo Giovanni Verga,"museo, galleria e/o raccolta",Catania,"via sant'anna, Catania, Italia",37.51166,15.0867,4.0,0957150598
Sicilia,Castello Maniace,monumento o complesso monumentale,Siracusa,"Siracusa, Italia",37.0646139,15.2907196,2.0,0931464420
Sicilia,Area archeologica e Antiquarium Eraclea Minoa,area o parco archeologico,Cattolica Eraclea,"Cattolica Eraclea, Italia",37.44084,13.392054,4.0,0922 846005
Sicilia,Area archeologica Villa Bonanno,area o parco archeologico,Palermo,"piazza della vittoria, Palermo, Italia",38.11235859999999,13.355301709826016,0.0,0917071317/411
Sicilia,Area Archeologica dell’antica Apollonia,area o parco archeologico,San Fratello,"San Fratello, Italia",38.0134424,14.5973915,0.0,"09036746433, URP-Soprintendenza di Messina"
Sicilia,Area archeologica di Cava d'Ispica,area o parco archeologico,Modica,"Modica, Italia",36.8589209,14.7613018,4.0,0932771667
Sicilia,Museo regionale di Terrasini,"museo, galleria e/o raccolta",Terrasini,"lungomare peppino impastato, Terrasini, Italia",38.1508143,13.0742257,6.0,"Centralino 091.8810989 - Personale di custodia 091.8683327
e-mail: poloartemoderna.pa.ou3@regione.sicilia.it"
Sicilia,Area Archeologica. Grotta di San Teodoro,area o parco archeologico,Acquedolci,"Acquedolci, Italia",38.0560399,14.5819013,0.0,0941730005
Sicilia,Museo regionale interdisciplinare di Caltanissetta,"museo, galleria e/o raccolta",Caltanissetta,"Caltanissetta, Italia",37.4899412,14.0631618,4.0,0934567062 - fax 0934567086
Sicilia,Museo archeologico regionale di Gela,"museo, galleria e/o raccolta",Gela,"corso vittorio emanuele, Gela, Italia",37.0669592,14.2482294,4.0,0933912626
Sicilia,Zona archeologica di Tranchina,"museo, galleria e/o raccolta",Sciacca,"Sciacca, Italia",37.5064786,13.0823323,0.0,Centralino Soprintendenza BB.CC.AA. di Agrigento 0922552611
Sicilia,Castello di Spadafora,monumento o complesso monumentale,Spadafora,"via nazionale, Spadafora, Italia",38.22294,15.38009,0.0,090 36894435 (URP)
Sicilia,Museo regionale di Aidone,"museo, galleria e/o raccolta",Aidone,"Aidone, Italia",37.4154209,14.445276,6.0,093587307
Sicilia,Area archeologica Monte Jato,area o parco archeologico,San Cipirello,"San Cipirello, Italia",37.96296,13.1753795,0.0,0918577943
Sicilia,Castello Grifeo,monumento o complesso monumentale,Partanna,"piazza b. graffeo, Partanna, Italia",37.72788,12.88747,4.0,0924 923970
Sicilia,Monastero Maria SS. della Valle - Badiazza,monumento o complesso monumentale,Messina,"Messina, Italia",38.1937571,15.5542082,0.0,NON REGISTRATO
Sicilia,Museo archeologico regionale Antonino Salinas di Palermo,"museo, galleria e/o raccolta",Palermo,"via bara all'olivella, Palermo, Italia",38.1213026,13.3619652,0.0,0916116807 - 0916116806 - FAX 0916110740
Sicilia,Area archeologica di Monte Adranone,area o parco archeologico,Sambuca di Sicilia,"Sambuca di Sicilia, Italia",37.6477395,13.1110313,6.0,0925 946083
Sicilia,Complesso Minerario di Trabia Tallarita,monumento o complesso monumentale,Riesi,"Riesi, Italia",37.2819611,14.0824138,4.0,0934554964
Sicilia,Area archeologica Santa Venera al Pozzo,area o parco archeologico,Aci Catena,"via alimena, Aci Catena, Italia",37.5833364,15.153924,0.0,0957150508 (Uffici del Polo Museale)
Sicilia,Convento della Croce,monumento o complesso monumentale,Scicli,"Scicli, Italia",36.7935701,14.7069644,2.0,0932249440/456 info:polomuseale.rg@regione.sicilia.it
Sicilia,Museo naturalistico regionale di Isolabella e Villa Caronia,area o parco archeologico,Taormina,"via nazionale, Taormina, Italia",37.8628167,15.2958844,4.0,Tel: 0942628738 Fax 0942628738
Sicilia,Abbazia e Monastero dei SS. Pietro e Paolo d’Agrò,monumento o complesso monumentale,Casalvecchio Siculo,"Casalvecchio Siculo, Italia",37.958162,15.322588,0.0,"09036746433, URP della Soprintendenza di Messina"
